{"type":"FeatureCollection","features":[{"type":"Feature","geometry":{"type":"Point","coordinates":[-75.90975,40.36131]},"properties":{"ipedsid":"210571","name":"ALBRIGHT COLLEGE","division":"NCAA D3","within_hours_away":4}},{"type":"Feature","geometry":{"type":"Point","coordinates":[-80.04933,39.15759]},"properties":{"ipedsid":"237118","name":"ALDERSON BROADDUS UNIVERSITY","division":"NCAA D2","within_hours_away":4}},{"type":"Feature","geometry":{"type":"Point","coordinates":[-78.7298,39.65267]},"properties":{"ipedsid":"161688","name":"ALLEGANY COLLEGE OF MARYLAND","division":"JC","within_hours_away":3}},{"type":"Feature","geometry":{"type":"Point","coordinates":[-76.51223,39.04978]},"properties":{"ipedsid":"161767","name":"ANNE ARUNDEL COMMUNITY COLLEGE","division":"JC","within_hours_away":2}},{"type":"Feature","geometry":{"type":"Point","coordinates":[-75.16524,40.09194]},"properties":{"ipedsid":"211088","name":"ARCADIA UNIVERSITY","division":"NCAA D3","within_hours_away":4}},{"type":"Feature","geometry":{"type":"Point","coordinates":[-74.6823,39.46143]},"properties":{"ipedsid":"183655","name":"ATLANTIC CAPE COMMUNITY COLLEGE","division":"JC","within_hours_away":4}},{"type":"Feature","geometry":{"type":"Point","coordinates":[-79.41322,36.57727]},"properties":{"ipedsid":"231420","name":"AVERETT UNIVERSITY","division":"NCAA D3","within_hours_away":5}},{"type":"Feature","geometry":{"type":"Point","coordinates":[-77.91379,35.73551]},"properties":{"ipedsid":"197911","name":"BARTON COLLEGE","division":"NCAA D2","within_hours_away":5}},{"type":"Feature","geometry":{"type":"Point","coordinates":[-74.08876,40.9518]},"properties":{"ipedsid":"183743","name":"BERGEN COMMUNITY COLLEGE","division":"JC","within_hours_away":5}},{"type":"Feature","geometry":{"type":"Point","coordinates":[-74.19593,40.79423]},"properties":{"ipedsid":"183822","name":"BLOOMFIELD COLLEGE","division":"NCAA D2","within_hours_away":5}},{"type":"Feature","geometry":{"type":"Point","coordinates":[-76.44642,41.00797]},"properties":{"ipedsid":"211158","name":"BLOOMSBURG UNIVERSITY OF PENNSYLVANIA","division":"NCAA D2","within_hours_away":5}},{"type":"Feature","geometry":{"type":"Point","coordinates":[-78.96905,38.37841]},"properties":{"ipedsid":"231581","name":"BRIDGEWATER COLLEGE","division":"NCAA D3","within_hours_away":3}},{"type":"Feature","geometry":{"type":"Point","coordinates":[-74.1327,40.32491]},"properties":{"ipedsid":"183859","name":"BROOKDALE COMMUNITY COLLEGE","division":"JC","within_hours_away":5}},{"type":"Feature","geometry":{"type":"Point","coordinates":[-76.88523,40.95366]},"properties":{"ipedsid":"211291","name":"BUCKNELL UNIVERSITY","division":"NCAA D1","within_hours_away":5}},{"type":"Feature","geometry":{"type":"Point","coordinates":[-74.96586,40.23912]},"properties":{"ipedsid":"211307","name":"BUCKS COUNTY COMMUNITY COLLEGE","division":"JC","within_hours_away":4}},{"type":"Feature","geometry":{"type":"Point","coordinates":[-79.91112,40.82999]},"properties":{"ipedsid":"211343","name":"BUTLER COUNTY COMMUNITY COLLEGE","division":"JC","within_hours_away":5}},{"type":"Feature","geometry":{"type":"Point","coordinates":[-75.37214,40.05461]},"properties":{"ipedsid":"211352","name":"CABRINI UNIVERSITY","division":"NCAA D3","within_hours_away":4}},{"type":"Feature","geometry":{"type":"Point","coordinates":[-74.27228,40.83404]},"properties":{"ipedsid":"183910","name":"CALDWELL UNIVERSITY","division":"NCAA D2","within_hours_away":5}},{"type":"Feature","geometry":{"type":"Point","coordinates":[-79.88447,40.06644]},"properties":{"ipedsid":"211361","name":"CALIFORNIA UNIVERSITY OF PENNSYLVANIA","division":"NCAA D2","within_hours_away":5}},{"type":"Feature","geometry":{"type":"Point","coordinates":[-75.04045,39.78505]},"properties":{"ipedsid":"183938","name":"CAMDEN COUNTY COLLEGE","division":"JC","within_hours_away":4}},{"type":"Feature","geometry":{"type":"Point","coordinates":[-76.99897,38.93576]},"properties":{"ipedsid":"131283","name":"CATHOLIC UNIVERSITY OF AMERICA","division":"NCAA D3","within_hours_away":2}},{"type":"Feature","geometry":{"type":"Point","coordinates":[-75.95599,39.64223]},"properties":{"ipedsid":"162104","name":"CECIL COLLEGE","division":"JC","within_hours_away":3}},{"type":"Feature","geometry":{"type":"Point","coordinates":[-79.92609,40.44848]},"properties":{"ipedsid":"211556","name":"CHATHAM UNIVERSITY","division":"NCAA D3","within_hours_away":5}},{"type":"Feature","geometry":{"type":"Point","coordinates":[-76.08308,38.95179]},"properties":{"ipedsid":"162168","name":"CHESAPEAKE COLLEGE","division":"JC","within_hours_away":3}},{"type":"Feature","geometry":{"type":"Point","coordinates":[-75.22887,40.08682]},"properties":{"ipedsid":"211583","name":"CHESTNUT HILL COLLEGE","division":"NCAA D2","within_hours_away":4}},{"type":"Feature","geometry":{"type":"Point","coordinates":[-77.09912,36.43625]},"properties":{"ipedsid":"198303","name":"CHOWAN UNIVERSITY","division":"NCAA D2","within_hours_away":5}},{"type":"Feature","geometry":{"type":"Point","coordinates":[-76.49511,37.06332]},"properties":{"ipedsid":"231712","name":"CHRISTOPHER NEWPORT UNIVERSITY","division":"NCAA D3","within_hours_away":4}},{"type":"Feature","geometry":{"type":"Point","coordinates":[-75.68427,41.4962]},"properties":{"ipedsid":"211024","name":"CLARKS SUMMIT UNIVERSITY","division":"NCAA D3","within_hours_away":5}},{"type":"Feature","geometry":{"type":"Point","coordinates":[-77.00933,38.55962]},"properties":{"ipedsid":"162122","name":"COLLEGE OF SOUTHERN MARYLAND","division":"JC","within_hours_away":2}},{"type":"Feature","geometry":{"type":"Point","coordinates":[-80.01397,40.44932]},"properties":{"ipedsid":"210605","name":"COMMUNITY COLLEGE OF ALLEGHENY COUNTY","division":"JC","within_hours_away":5}},{"type":"Feature","geometry":{"type":"Point","coordinates":[-81.00568,37.4252]},"properties":{"ipedsid":"237330","name":"CONCORD UNIVERSITY","division":"NCAA D2","within_hours_away":5}},{"type":"Feature","geometry":{"type":"Point","coordinates":[-76.65857,39.31107]},"properties":{"ipedsid":"162283","name":"COPPIN STATE UNIVERSITY","division":"NCAA D1","within_hours_away":2}},{"type":"Feature","geometry":{"type":"Point","coordinates":[-79.84588,38.93045]},"properties":{"ipedsid":"237358","name":"DAVIS & ELKINS COLLEGE","division":"NCAA D2","within_hours_away":4}},{"type":"Feature","geometry":{"type":"Point","coordinates":[-75.39311,39.96669]},"properties":{"ipedsid":"211927","name":"DELAWARE COUNTY COMMUNITY COLLEGE","division":"JC","within_hours_away":4}},{"type":"Feature","geometry":{"type":"Point","coordinates":[-75.54056,39.18718]},"properties":{"ipedsid":"130934","name":"DELAWARE STATE UNIVERSITY","division":"NCAA D1","within_hours_away":4}},{"type":"Feature","geometry":{"type":"Point","coordinates":[-75.15828,40.29791]},"properties":{"ipedsid":"211981","name":"DELAWARE VALLEY UNIVERSITY","division":"NCAA D3","within_hours_away":4}},{"type":"Feature","geometry":{"type":"Point","coordinates":[-75.3766,40.54013]},"properties":{"ipedsid":"210739","name":"DESALES UNIVERSITY","division":"NCAA D3","within_hours_away":5}},{"type":"Feature","geometry":{"type":"Point","coordinates":[-77.19786,40.20278]},"properties":{"ipedsid":"212009","name":"DICKINSON COLLEGE","division":"NCAA D3","within_hours_away":3}},{"type":"Feature","geometry":{"type":"Point","coordinates":[-74.42791,40.76066]},"properties":{"ipedsid":"184348","name":"DREW UNIVERSITY","division":"NCAA D3","within_hours_away":5}},{"type":"Feature","geometry":{"type":"Point","coordinates":[-78.93865,36.00231]},"properties":{"ipedsid":"198419","name":"DUKE UNIVERSITY","division":"NCAA D1","within_hours_away":5}},{"type":"Feature","geometry":{"type":"Point","coordinates":[-75.17378,40.99701]},"properties":{"ipedsid":"212115","name":"EAST STROUDSBURG UNIVERSITY OF PENNSYLVANIA","division":"NCAA D2","within_hours_away":5}},{"type":"Feature","geometry":{"type":"Point","coordinates":[-78.878,38.47007]},"properties":{"ipedsid":"232043","name":"EASTERN MENNONITE UNIVERSITY","division":"NCAA D3","within_hours_away":2}},{"type":"Feature","geometry":{"type":"Point","coordinates":[-75.37304,40.05207]},"properties":{"ipedsid":"212133","name":"EASTERN UNIVERSITY","division":"NCAA D3","within_hours_away":4}},{"type":"Feature","geometry":{"type":"Point","coordinates":[-76.59151,40.15003]},"properties":{"ipedsid":"212197","name":"ELIZABETHTOWN COLLEGE","division":"NCAA D3","within_hours_away":3}},{"type":"Feature","geometry":{"type":"Point","coordinates":[-80.16206,39.48595]},"properties":{"ipedsid":"237367","name":"FAIRMONT STATE UNIVERSITY","division":"NCAA D2","within_hours_away":5}},{"type":"Feature","geometry":{"type":"Point","coordinates":[-74.09643,40.86726]},"properties":{"ipedsid":"184612","name":"FELICIAN UNIVERSITY","division":"NCAA D2","within_hours_away":5}},{"type":"Feature","geometry":{"type":"Point","coordinates":[-80.0209,36.92661]},"properties":{"ipedsid":"232089","name":"FERRUM COLLEGE","division":"NCAA D3","within_hours_away":5}},{"type":"Feature","geometry":{"type":"Point","coordinates":[-73.88988,40.86137]},"properties":{"ipedsid":"191241","name":"FORDHAM UNIVERSITY","division":"NCAA D1","within_hours_away":5}},{"type":"Feature","geometry":{"type":"Point","coordinates":[-77.41788,39.45225]},"properties":{"ipedsid":"162557","name":"FREDERICK COMMUNITY COLLEGE","division":"JC","within_hours_away":2}},{"type":"Feature","geometry":{"type":"Point","coordinates":[-78.9339,39.65148]},"properties":{"ipedsid":"162584","name":"FROSTBURG STATE UNIVERSITY","division":"NCAA D2","within_hours_away":3}},{"type":"Feature","geometry":{"type":"Point","coordinates":[-76.99371,38.90734]},"properties":{"ipedsid":"131450","name":"GALLAUDET UNIVERSITY","division":"NCAA D3","within_hours_away":2}},{"type":"Feature","geometry":{"type":"Point","coordinates":[-79.34326,39.56066]},"properties":{"ipedsid":"162609","name":"GARRETT COLLEGE","division":"JC","within_hours_away":4}},{"type":"Feature","geometry":{"type":"Point","coordinates":[-80.32103,40.77216]},"properties":{"ipedsid":"212656","name":"GENEVA COLLEGE","division":"NCAA D3","within_hours_away":5}},{"type":"Feature","geometry":{"type":"Point","coordinates":[-77.3079,38.83087]},"properties":{"ipedsid":"232186","name":"GEORGE MASON UNIVERSITY","division":"NCAA D1","within_hours_away":1}},{"type":"Feature","geometry":{"type":"Point","coordinates":[-77.04627,38.89911]},"properties":{"ipedsid":"131469","name":"GEORGE WASHINGTON UNIVERSITY","division":"NCAA D1","within_hours_away":1}},{"type":"Feature","geometry":{"type":"Point","coordinates":[-77.07345,38.90876]},"properties":{"ipedsid":"131496","name":"GEORGETOWN UNIVERSITY","division":"NCAA D1","within_hours_away":1}},{"type":"Feature","geometry":{"type":"Point","coordinates":[-77.23458,39.83586]},"properties":{"ipedsid":"212674","name":"GETTYSBURG COLLEGE","division":"NCAA D3","within_hours_away":2}},{"type":"Feature","geometry":{"type":"Point","coordinates":[-80.83342,38.93547]},"properties":{"ipedsid":"237385","name":"GLENVILLE STATE COLLEGE","division":"NCAA D2","within_hours_away":5}},{"type":"Feature","geometry":{"type":"Point","coordinates":[-75.68883,39.74102]},"properties":{"ipedsid":"130989","name":"GOLDEY-BEACOM COLLEGE","division":"NCAA D2","within_hours_away":3}},{"type":"Feature","geometry":{"type":"Point","coordinates":[-75.23804,40.19756]},"properties":{"ipedsid":"212832","name":"GWYNEDD MERCY UNIVERSITY","division":"NCAA D3","within_hours_away":4}},{"type":"Feature","geometry":{"type":"Point","coordinates":[-77.66737,39.63098]},"properties":{"ipedsid":"162690","name":"HAGERSTOWN COMMUNITY COLLEGE","division":"JC","within_hours_away":2}},{"type":"Feature","geometry":{"type":"Point","coordinates":[-78.46138,37.24252]},"properties":{"ipedsid":"232256","name":"HAMPDEN-SYDNEY COLLEGE","division":"NCAA D3","within_hours_away":4}},{"type":"Feature","geometry":{"type":"Point","coordinates":[-76.28178,39.56139]},"properties":{"ipedsid":"162706","name":"HARFORD COMMUNITY COLLEGE","division":"JC","within_hours_away":3}},{"type":"Feature","geometry":{"type":"Point","coordinates":[-75.30511,40.00733]},"properties":{"ipedsid":"212911","name":"HAVERFORD COLLEGE","division":"NCAA D3","within_hours_away":4}},{"type":"Feature","geometry":{"type":"Point","coordinates":[-77.4193,39.42191]},"properties":{"ipedsid":"162760","name":"HOOD COLLEGE","division":"NCAA D3","within_hours_away":2}},{"type":"Feature","geometry":{"type":"Point","coordinates":[-75.57066,40.02793]},"properties":{"ipedsid":"213011","name":"IMMACULATA UNIVERSITY","division":"NCAA D3","within_hours_away":4}},{"type":"Feature","geometry":{"type":"Point","coordinates":[-78.87168,38.43536]},"properties":{"ipedsid":"232423","name":"JAMES MADISON UNIVERSITY","division":"NCAA D1","within_hours_away":2}},{"type":"Feature","geometry":{"type":"Point","coordinates":[-76.62073,39.32983]},"properties":{"ipedsid":"162928","name":"JOHNS HOPKINS UNIVERSITY","division":"NCAA D3","within_hours_away":2}},{"type":"Feature","geometry":{"type":"Point","coordinates":[-78.01511,40.49952]},"properties":{"ipedsid":"213251","name":"JUNIATA COLLEGE","division":"NCAA D3","within_hours_away":4}},{"type":"Feature","geometry":{"type":"Point","coordinates":[-74.2347,40.67947]},"properties":{"ipedsid":"185262","name":"KEAN UNIVERSITY","division":"NCAA D3","within_hours_away":5}},{"type":"Feature","geometry":{"type":"Point","coordinates":[-75.78537,40.51333]},"properties":{"ipedsid":"213349","name":"KUTZTOWN UNIVERSITY OF PENNSYLVANIA","division":"NCAA D2","within_hours_away":4}},{"type":"Feature","geometry":{"type":"Point","coordinates":[-75.65928,41.41148]},"properties":{"ipedsid":"213376","name":"LACKAWANNA COLLEGE","division":"JC","within_hours_away":5}},{"type":"Feature","geometry":{"type":"Point","coordinates":[-75.21135,40.69953]},"properties":{"ipedsid":"213385","name":"LAFAYETTE COLLEGE","division":"NCAA D1","within_hours_away":5}},{"type":"Feature","geometry":{"type":"Point","coordinates":[-76.28813,40.07365]},"properties":{"ipedsid":"213400","name":"LANCASTER BIBLE COLLEGE","division":"NCAA D3","within_hours_away":4}},{"type":"Feature","geometry":{"type":"Point","coordinates":[-76.5138,40.33176]},"properties":{"ipedsid":"213507","name":"LEBANON VALLEY COLLEGE","division":"NCAA D3","within_hours_away":4}},{"type":"Feature","geometry":{"type":"Point","coordinates":[-75.61192,40.66392]},"properties":{"ipedsid":"213525","name":"LEHIGH CARBON COMMUNITY COLLEGE","division":"JC","within_hours_away":5}},{"type":"Feature","geometry":{"type":"Point","coordinates":[-75.37714,40.60665]},"properties":{"ipedsid":"213543","name":"LEHIGH UNIVERSITY","division":"NCAA D1","within_hours_away":5}},{"type":"Feature","geometry":{"type":"Point","coordinates":[-79.17965,37.35034]},"properties":{"ipedsid":"232557","name":"LIBERTY UNIVERSITY","division":"NCAA D1","within_hours_away":4}},{"type":"Feature","geometry":{"type":"Point","coordinates":[-77.46225,41.14181]},"properties":{"ipedsid":"213613","name":"LOCK HAVEN UNIVERSITY","division":"NCAA D2","within_hours_away":5}},{"type":"Feature","geometry":{"type":"Point","coordinates":[-78.39584,37.30105]},"properties":{"ipedsid":"232566","name":"LONGWOOD UNIVERSITY","division":"NCAA D1","within_hours_away":4}},{"type":"Feature","geometry":{"type":"Point","coordinates":[-78.29967,36.10542]},"properties":{"ipedsid":"198871","name":"LOUISBURG COLLEGE","division":"JC","within_hours_away":5}},{"type":"Feature","geometry":{"type":"Point","coordinates":[-75.99324,41.19314]},"properties":{"ipedsid":"213659","name":"LUZERNE COUNTY COMMUNITY COLLEGE","division":"JC","within_hours_away":5}},{"type":"Feature","geometry":{"type":"Point","coordinates":[-77.00047,41.24611]},"properties":{"ipedsid":"213668","name":"LYCOMING COLLEGE","division":"NCAA D3","within_hours_away":5}},{"type":"Feature","geometry":{"type":"Point","coordinates":[-73.90185,40.88973]},"properties":{"ipedsid":"192703","name":"MANHATTAN COLLEGE","division":"NCAA D1","within_hours_away":5}},{"type":"Feature","geometry":{"type":"Point","coordinates":[-79.06834,38.15477]},"properties":{"ipedsid":"232672","name":"MARY BALDWIN UNIVERSITY","division":"NCAA D3","within_hours_away":3}},{"type":"Feature","geometry":{"type":"Point","coordinates":[-75.63419,41.43455]},"properties":{"ipedsid":"213826","name":"MARYWOOD UNIVERSITY","division":"NCAA D3","within_hours_away":5}},{"type":"Feature","geometry":{"type":"Point","coordinates":[-77.00163,39.58483]},"properties":{"ipedsid":"164270","name":"MCDANIEL COLLEGE","division":"NCAA D3","within_hours_away":2}},{"type":"Feature","geometry":{"type":"Point","coordinates":[-74.65076,40.25435]},"properties":{"ipedsid":"185509","name":"MERCER COUNTY COMMUNITY COLLEGE","division":"JC","within_hours_away":4}},{"type":"Feature","geometry":{"type":"Point","coordinates":[-76.35259,39.99572]},"properties":{"ipedsid":"214041","name":"MILLERSVILLE UNIVERSITY OF PENNSYLVANIA","division":"NCAA D2","within_hours_away":4}},{"type":"Feature","geometry":{"type":"Point","coordinates":[-75.97159,41.34527]},"properties":{"ipedsid":"214069","name":"MISERICORDIA UNIVERSITY","division":"NCAA D3","within_hours_away":5}},{"type":"Feature","geometry":{"type":"Point","coordinates":[-74.00648,40.28009]},"properties":{"ipedsid":"185572","name":"MONMOUTH UNIVERSITY","division":"NCAA D1","within_hours_away":5}},{"type":"Feature","geometry":{"type":"Point","coordinates":[-74.19854,40.85912]},"properties":{"ipedsid":"185590","name":"MONTCLAIR STATE UNIVERSITY","division":"NCAA D3","within_hours_away":5}},{"type":"Feature","geometry":{"type":"Point","coordinates":[-77.15941,39.09851]},"properties":{"ipedsid":"163426","name":"MONTGOMERY COLLEGE","division":"JC","within_hours_away":2}},{"type":"Feature","geometry":{"type":"Point","coordinates":[-77.35217,39.6806]},"properties":{"ipedsid":"163462","name":"MOUNT ST. MARY'S UNIVERSITY","division":"NCAA D1","within_hours_away":2}},{"type":"Feature","geometry":{"type":"Point","coordinates":[-75.50831,40.59753]},"properties":{"ipedsid":"214175","name":"MUHLENBERG COLLEGE","division":"NCAA D3","within_hours_away":4}},{"type":"Feature","geometry":{"type":"Point","coordinates":[-75.44,39.87489]},"properties":{"ipedsid":"214272","name":"NEUMANN UNIVERSITY","division":"NCAA D3","within_hours_away":4}},{"type":"Feature","geometry":{"type":"Point","coordinates":[-74.08724,40.70996]},"properties":{"ipedsid":"185129","name":"NEW JERSEY CITY UNIVERSITY","division":"NCAA D3","within_hours_away":5}},{"type":"Feature","geometry":{"type":"Point","coordinates":[-74.17711,40.74201]},"properties":{"ipedsid":"185828","name":"NEW JERSEY INSTITUTE OF TECHNOLOGY","division":"NCAA D1","within_hours_away":5}},{"type":"Feature","geometry":{"type":"Point","coordinates":[-73.9973,40.72947]},"properties":{"ipedsid":"193900","name":"NEW YORK UNIVERSITY","division":"NCAA D3","within_hours_away":5}},{"type":"Feature","geometry":{"type":"Point","coordinates":[-76.26134,36.84846]},"properties":{"ipedsid":"232937","name":"NORFOLK STATE UNIVERSITY","division":"NCAA D1","within_hours_away":4}},{"type":"Feature","geometry":{"type":"Point","coordinates":[-78.89856,35.9742]},"properties":{"ipedsid":"199157","name":"NORTH CAROLINA CENTRAL UNIVERSITY","division":"NCAA D1","within_hours_away":5}},{"type":"Feature","geometry":{"type":"Point","coordinates":[-77.77212,36.01744]},"properties":{"ipedsid":"199209","name":"NORTH CAROLINA WESLEYAN COLLEGE","division":"NCAA D3","within_hours_away":5}},{"type":"Feature","geometry":{"type":"Point","coordinates":[-75.32346,40.6725]},"properties":{"ipedsid":"214379","name":"NORTHAMPTON COUNTY AREA COMMUNITY COLLEGE","division":"JC","within_hours_away":5}},{"type":"Feature","geometry":{"type":"Point","coordinates":[-74.16687,40.00784]},"properties":{"ipedsid":"185873","name":"OCEAN COUNTY COLLEGE","division":"JC","within_hours_away":5}},{"type":"Feature","geometry":{"type":"Point","coordinates":[-76.30969,36.88488]},"properties":{"ipedsid":"232982","name":"OLD DOMINION UNIVERSITY","division":"NCAA D1","within_hours_away":4}},{"type":"Feature","geometry":{"type":"Point","coordinates":[-74.00489,40.71169]},"properties":{"ipedsid":"194310","name":"PACE UNIVERSITY","division":"NCAA D2","within_hours_away":5}},{"type":"Feature","geometry":{"type":"Point","coordinates":[-77.0254,41.23688]},"properties":{"ipedsid":"366252","name":"PENNSYLVANIA COLLEGE OF TECHNOLOGY","division":"NCAA D3","within_hours_away":5}},{"type":"Feature","geometry":{"type":"Point","coordinates":[-80.00147,40.4385]},"properties":{"ipedsid":"215442","name":"POINT PARK UNIVERSITY","division":"NAIA","within_hours_away":5}},{"type":"Feature","geometry":{"type":"Point","coordinates":[-76.82416,38.88849]},"properties":{"ipedsid":"163657","name":"PRINCE GEORGE'S COMMUNITY COLLEGE","division":"JC","within_hours_away":2}},{"type":"Feature","geometry":{"type":"Point","coordinates":[-74.6577,40.34711]},"properties":{"ipedsid":"186131","name":"PRINCETON UNIVERSITY","division":"NCAA D1","within_hours_away":5}},{"type":"Feature","geometry":{"type":"Point","coordinates":[-80.54975,37.13688]},"properties":{"ipedsid":"233277","name":"RADFORD UNIVERSITY","division":"NCAA D1","within_hours_away":5}},{"type":"Feature","geometry":{"type":"Point","coordinates":[-77.47812,37.76078]},"properties":{"ipedsid":"233295","name":"RANDOLPH-MACON COLLEGE","division":"NCAA D3","within_hours_away":3}},{"type":"Feature","geometry":{"type":"Point","coordinates":[-74.68742,40.61025]},"properties":{"ipedsid":"186645","name":"RARITAN VALLEY COMMUNITY COLLEGE","division":"JC","within_hours_away":5}},{"type":"Feature","geometry":{"type":"Point","coordinates":[-77.39991,37.15695]},"properties":{"ipedsid":"233338","name":"RICHARD BLAND COLLEGE","division":"JC","within_hours_away":3}},{"type":"Feature","geometry":{"type":"Point","coordinates":[-74.73696,40.28054]},"properties":{"ipedsid":"186283","name":"RIDER UNIVERSITY","division":"NCAA D1","within_hours_away":4}},{"type":"Feature","geometry":{"type":"Point","coordinates":[-80.0564,37.29691]},"properties":{"ipedsid":"233426","name":"ROANOKE COLLEGE","division":"NCAA D3","within_hours_away":4}},{"type":"Feature","geometry":{"type":"Point","coordinates":[-75.32992,40.03475]},"properties":{"ipedsid":"215691","name":"ROSEMONT COLLEGE","division":"NCAA D3","within_hours_away":4}},{"type":"Feature","geometry":{"type":"Point","coordinates":[-75.11853,39.71058]},"properties":{"ipedsid":"184782","name":"ROWAN UNIVERSITY","division":"NCAA D3","within_hours_away":4}},{"type":"Feature","geometry":{"type":"Point","coordinates":[-75.23833,39.99446]},"properties":{"ipedsid":"215770","name":"SAINT JOSEPH'S UNIVERSITY","division":"NCAA D1","within_hours_away":4}},{"type":"Feature","geometry":{"type":"Point","coordinates":[-74.07154,40.72714]},"properties":{"ipedsid":"186432","name":"SAINT PETER'S UNIVERSITY","division":"NCAA D1","within_hours_away":5}},{"type":"Feature","geometry":{"type":"Point","coordinates":[-75.4697,39.69852]},"properties":{"ipedsid":"186469","name":"SALEM COMMUNITY COLLEGE","division":"JC","within_hours_away":3}},{"type":"Feature","geometry":{"type":"Point","coordinates":[-80.57178,39.28868]},"properties":{"ipedsid":"237783","name":"SALEM UNIVERSITY","division":"NCAA D2","within_hours_away":5}},{"type":"Feature","geometry":{"type":"Point","coordinates":[-75.60575,38.3454]},"properties":{"ipedsid":"163851","name":"SALISBURY UNIVERSITY","division":"NCAA D3","within_hours_away":4}},{"type":"Feature","geometry":{"type":"Point","coordinates":[-74.24877,40.74287]},"properties":{"ipedsid":"186584","name":"SETON HALL UNIVERSITY","division":"NCAA D1","within_hours_away":5}},{"type":"Feature","geometry":{"type":"Point","coordinates":[-79.55622,40.30865]},"properties":{"ipedsid":"215947","name":"SETON HILL UNIVERSITY","division":"NCAA D2","within_hours_away":5}},{"type":"Feature","geometry":{"type":"Point","coordinates":[-78.15836,39.16603]},"properties":{"ipedsid":"233541","name":"SHENANDOAH UNIVERSITY","division":"NCAA D3","within_hours_away":2}},{"type":"Feature","geometry":{"type":"Point","coordinates":[-77.80495,39.43413]},"properties":{"ipedsid":"237792","name":"SHEPHERD UNIVERSITY","division":"NCAA D2","within_hours_away":2}},{"type":"Feature","geometry":{"type":"Point","coordinates":[-77.522,40.06195]},"properties":{"ipedsid":"216010","name":"SHIPPENSBURG UNIVERSITY OF PENNSYLVANIA","division":"NCAA D2","within_hours_away":3}},{"type":"Feature","geometry":{"type":"Point","coordinates":[-79.35033,37.74068]},"properties":{"ipedsid":"233611","name":"SOUTHERN VIRGINIA UNIVERSITY","division":"NCAA D3","within_hours_away":3}},{"type":"Feature","geometry":{"type":"Point","coordinates":[-76.42575,38.18859]},"properties":{"ipedsid":"163912","name":"ST. MARY'S COLLEGE OF MARYLAND","division":"NCAA D3","within_hours_away":3}},{"type":"Feature","geometry":{"type":"Point","coordinates":[-74.02532,40.74477]},"properties":{"ipedsid":"186867","name":"STEVENS INSTITUTE OF TECHNOLOGY","division":"NCAA D3","within_hours_away":5}},{"type":"Feature","geometry":{"type":"Point","coordinates":[-76.70126,39.4213]},"properties":{"ipedsid":"164173","name":"STEVENSON UNIVERSITY","division":"NCAA D3","within_hours_away":2}},{"type":"Feature","geometry":{"type":"Point","coordinates":[-74.5326,39.49195]},"properties":{"ipedsid":"186876","name":"STOCKTON UNIVERSITY","division":"NCAA D3","within_hours_away":5}},{"type":"Feature","geometry":{"type":"Point","coordinates":[-76.87536,40.79749]},"properties":{"ipedsid":"216278","name":"SUSQUEHANNA UNIVERSITY","division":"NCAA D3","within_hours_away":4}},{"type":"Feature","geometry":{"type":"Point","coordinates":[-75.3516,39.90595]},"properties":{"ipedsid":"216287","name":"SWARTHMORE COLLEGE","division":"NCAA D3","within_hours_away":4}},{"type":"Feature","geometry":{"type":"Point","coordinates":[-74.77737,40.26874]},"properties":{"ipedsid":"187134","name":"THE COLLEGE OF NEW JERSEY","division":"NCAA D3","within_hours_away":4}},{"type":"Feature","geometry":{"type":"Point","coordinates":[-76.61223,39.39298]},"properties":{"ipedsid":"164076","name":"TOWSON UNIVERSITY","division":"NCAA D1","within_hours_away":2}},{"type":"Feature","geometry":{"type":"Point","coordinates":[-74.31979,40.6678]},"properties":{"ipedsid":"187198","name":"UNION COUNTY COLLEGE","division":"JC","within_hours_away":5}},{"type":"Feature","geometry":{"type":"Point","coordinates":[-76.48167,38.98055]},"properties":{"ipedsid":"164155","name":"UNITED STATES NAVAL ACADEMY","division":"NCAA D1","within_hours_away":2}},{"type":"Feature","geometry":{"type":"Point","coordinates":[-75.75283,39.67801]},"properties":{"ipedsid":"130943","name":"UNIVERSITY OF DELAWARE","division":"NCAA D1","within_hours_away":3}},{"type":"Feature","geometry":{"type":"Point","coordinates":[-79.18417,37.39765]},"properties":{"ipedsid":"232609","name":"UNIVERSITY OF LYNCHBURG","division":"NCAA D3","within_hours_away":4}},{"type":"Feature","geometry":{"type":"Point","coordinates":[-77.47389,38.30178]},"properties":{"ipedsid":"232681","name":"UNIVERSITY OF MARY WASHINGTON","division":"NCAA D3","within_hours_away":2}},{"type":"Feature","geometry":{"type":"Point","coordinates":[-75.68719,38.21123]},"properties":{"ipedsid":"163338","name":"UNIVERSITY OF MARYLAND EASTERN SHORE","division":"NCAA D1","within_hours_away":4}},{"type":"Feature","geometry":{"type":"Point","coordinates":[-77.5388,37.57742]},"properties":{"ipedsid":"233374","name":"UNIVERSITY OF RICHMOND","division":"NCAA D1","within_hours_away":3}},{"type":"Feature","geometry":{"type":"Point","coordinates":[-75.65804,41.40712]},"properties":{"ipedsid":"215929","name":"UNIVERSITY OF SCRANTON","division":"NCAA D3","within_hours_away":5}},{"type":"Feature","geometry":{"type":"Point","coordinates":[-75.20829,39.94651]},"properties":{"ipedsid":"215132","name":"UNIVERSITY OF THE SCIENCES","division":"NCAA D2","within_hours_away":4}},{"type":"Feature","geometry":{"type":"Point","coordinates":[-75.54884,40.11908]},"properties":{"ipedsid":"216542","name":"UNIVERSITY OF VALLEY FORGE","division":"NCAA D3","within_hours_away":4}},{"type":"Feature","geometry":{"type":"Point","coordinates":[-75.45807,40.19421]},"properties":{"ipedsid":"216524","name":"URSINUS COLLEGE","division":"NCAA D3","within_hours_away":4}},{"type":"Feature","geometry":{"type":"Point","coordinates":[-75.34023,40.03575]},"properties":{"ipedsid":"216597","name":"VILLANOVA UNIVERSITY","division":"NCAA D1","within_hours_away":4}},{"type":"Feature","geometry":{"type":"Point","coordinates":[-77.45362,37.54761]},"properties":{"ipedsid":"234030","name":"VIRGINIA COMMONWEALTH UNIVERSITY","division":"NCAA D1","within_hours_away":3}},{"type":"Feature","geometry":{"type":"Point","coordinates":[-77.4199,37.2365]},"properties":{"ipedsid":"234155","name":"VIRGINIA STATE UNIVERSITY","division":"NCAA D2","within_hours_away":3}},{"type":"Feature","geometry":{"type":"Point","coordinates":[-76.18608,36.86846]},"properties":{"ipedsid":"234173","name":"VIRGINIA WESLEYAN UNIVERSITY","division":"NCAA D3","within_hours_away":4}},{"type":"Feature","geometry":{"type":"Point","coordinates":[-74.09082,40.6145]},"properties":{"ipedsid":"197197","name":"WAGNER COLLEGE","division":"NCAA D1","within_hours_away":5}},{"type":"Feature","geometry":{"type":"Point","coordinates":[-80.24073,40.17091]},"properties":{"ipedsid":"216667","name":"WASHINGTON & JEFFERSON COLLEGE","division":"NCAA D3","within_hours_away":5}},{"type":"Feature","geometry":{"type":"Point","coordinates":[-76.06873,39.21733]},"properties":{"ipedsid":"164216","name":"WASHINGTON COLLEGE","division":"NCAA D3","within_hours_away":3}},{"type":"Feature","geometry":{"type":"Point","coordinates":[-80.18745,39.89934]},"properties":{"ipedsid":"216694","name":"WAYNESBURG UNIVERSITY","division":"NCAA D3","within_hours_away":5}},{"type":"Feature","geometry":{"type":"Point","coordinates":[-75.59852,39.95191]},"properties":{"ipedsid":"216764","name":"WEST CHESTER UNIVERSITY OF PENNSYLVANIA","division":"NCAA D2","within_hours_away":4}},{"type":"Feature","geometry":{"type":"Point","coordinates":[-79.95393,39.63473]},"properties":{"ipedsid":"238032","name":"WEST VIRGINIA UNIVERSITY","division":"NCAA D1","within_hours_away":4}},{"type":"Feature","geometry":{"type":"Point","coordinates":[-81.18412,37.7759]},"properties":{"ipedsid":"237950","name":"WEST VIRGINIA UNIVERSITY INSTITUTE OF TECHNOLOGY","division":"NAIA","within_hours_away":5}},{"type":"Feature","geometry":{"type":"Point","coordinates":[-80.21707,38.99043]},"properties":{"ipedsid":"237969","name":"WEST VIRGINIA WESLEYAN COLLEGE","division":"NCAA D2","within_hours_away":5}},{"type":"Feature","geometry":{"type":"Point","coordinates":[-79.56486,40.23432]},"properties":{"ipedsid":"216825","name":"WESTMORELAND COUNTY COMMUNITY COLLEGE","division":"JC","within_hours_away":4}},{"type":"Feature","geometry":{"type":"Point","coordinates":[-75.35518,39.86174]},"properties":{"ipedsid":"216852","name":"WIDENER UNIVERSITY","division":"NCAA D3","within_hours_away":4}},{"type":"Feature","geometry":{"type":"Point","coordinates":[-75.88849,41.24492]},"properties":{"ipedsid":"216931","name":"WILKES UNIVERSITY","division":"NCAA D3","within_hours_away":5}},{"type":"Feature","geometry":{"type":"Point","coordinates":[-74.19875,40.94589]},"properties":{"ipedsid":"187444","name":"WILLIAM PATERSON UNIVERSITY OF NEW JERSEY","division":"NCAA D3","within_hours_away":5}},{"type":"Feature","geometry":{"type":"Point","coordinates":[-75.42205,39.90802]},"properties":{"ipedsid":"216940","name":"WILLIAMSON COLLEGE OF THE TRADES","division":"JC","within_hours_away":4}},{"type":"Feature","geometry":{"type":"Point","coordinates":[-75.58634,39.68308]},"properties":{"ipedsid":"131113","name":"WILMINGTON UNIVERSITY","division":"NCAA D2","within_hours_away":3}},{"type":"Feature","geometry":{"type":"Point","coordinates":[-77.64966,39.95015]},"properties":{"ipedsid":"217013","name":"WILSON COLLEGE","division":"NCAA D3","within_hours_away":3}},{"type":"Feature","geometry":{"type":"Point","coordinates":[-73.92851,40.85077]},"properties":{"ipedsid":"197708","name":"YESHIVA UNIVERSITY","division":"NCAA D3","within_hours_away":5}},{"type":"Feature","geometry":{"type":"Point","coordinates":[-76.72872,39.94759]},"properties":{"ipedsid":"217059","name":"YORK COLLEGE OF PENNSYLVANIA","division":"NCAA D3","within_hours_away":3}}]}