<?xml version="1.0" encoding="UTF-8"?><kml xmlns="http://www.opengis.net/kml/2.2"><Document><name>Colleges within 5hrs</name><description>All colleges within 5hrs of Aldie, Va that have a baseball program (D1, D2, D3, JUCO, NAIA)</description><Placemark><name>ALBRIGHT COLLEGE</name><description>NCAA D3</description><ExtendedData><Data name="ipedsid"><value>210571</value></Data><Data name="name"><value>ALBRIGHT COLLEGE</value></Data><Data name="division"><value>NCAA D3</value></Data><Data name="within_hours_away"><value>4</value></Data></ExtendedData><Point><coordinates>-75.90975,40.36131</coordinates></Point></Placemark><Placemark><name>ALDERSON BROADDUS UNIVERSITY</name><description>NCAA D2</description><ExtendedData><Data name="ipedsid"><value>237118</value></Data><Data name="name"><value>ALDERSON BROADDUS UNIVERSITY</value></Data><Data name="division"><value>NCAA D2</value></Data><Data name="within_hours_away"><value>4</value></Data></ExtendedData><Point><coordinates>-80.04933,39.15759</coordinates></Point></Placemark><Placemark><name>ALLEGANY COLLEGE OF MARYLAND</name><description>JC</description><ExtendedData><Data name="ipedsid"><value>161688</value></Data><Data name="name"><value>ALLEGANY COLLEGE OF MARYLAND</value></Data><Data name="division"><value>JC</value></Data><Data name="within_hours_away"><value>3</value></Data></ExtendedData><Point><coordinates>-78.7298,39.65267</coordinates></Point></Placemark><Placemark><name>ANNE ARUNDEL COMMUNITY COLLEGE</name><description>JC</description><ExtendedData><Data name="ipedsid"><value>161767</value></Data><Data name="name"><value>ANNE ARUNDEL COMMUNITY COLLEGE</value></Data><Data name="division"><value>JC</value></Data><Data name="within_hours_away"><value>2</value></Data></ExtendedData><Point><coordinates>-76.51223,39.04978</coordinates></Point></Placemark><Placemark><name>ARCADIA UNIVERSITY</name><description>NCAA D3</description><ExtendedData><Data name="ipedsid"><value>211088</value></Data><Data name="name"><value>ARCADIA UNIVERSITY</value></Data><Data name="division"><value>NCAA D3</value></Data><Data name="within_hours_away"><value>4</value></Data></ExtendedData><Point><coordinates>-75.16524,40.09194</coordinates></Point></Placemark><Placemark><name>ATLANTIC CAPE COMMUNITY COLLEGE</name><description>JC</description><ExtendedData><Data name="ipedsid"><value>183655</value></Data><Data name="name"><value>ATLANTIC CAPE COMMUNITY COLLEGE</value></Data><Data name="division"><value>JC</value></Data><Data name="within_hours_away"><value>4</value></Data></ExtendedData><Point><coordinates>-74.6823,39.46143</coordinates></Point></Placemark><Placemark><name>AVERETT UNIVERSITY</name><description>NCAA D3</description><ExtendedData><Data name="ipedsid"><value>231420</value></Data><Data name="name"><value>AVERETT UNIVERSITY</value></Data><Data name="division"><value>NCAA D3</value></Data><Data name="within_hours_away"><value>5</value></Data></ExtendedData><Point><coordinates>-79.41322,36.57727</coordinates></Point></Placemark><Placemark><name>BARTON COLLEGE</name><description>NCAA D2</description><ExtendedData><Data name="ipedsid"><value>197911</value></Data><Data name="name"><value>BARTON COLLEGE</value></Data><Data name="division"><value>NCAA D2</value></Data><Data name="within_hours_away"><value>5</value></Data></ExtendedData><Point><coordinates>-77.91379,35.73551</coordinates></Point></Placemark><Placemark><name>BERGEN COMMUNITY COLLEGE</name><description>JC</description><ExtendedData><Data name="ipedsid"><value>183743</value></Data><Data name="name"><value>BERGEN COMMUNITY COLLEGE</value></Data><Data name="division"><value>JC</value></Data><Data name="within_hours_away"><value>5</value></Data></ExtendedData><Point><coordinates>-74.08876,40.9518</coordinates></Point></Placemark><Placemark><name>BLOOMFIELD COLLEGE</name><description>NCAA D2</description><ExtendedData><Data name="ipedsid"><value>183822</value></Data><Data name="name"><value>BLOOMFIELD COLLEGE</value></Data><Data name="division"><value>NCAA D2</value></Data><Data name="within_hours_away"><value>5</value></Data></ExtendedData><Point><coordinates>-74.19593,40.79423</coordinates></Point></Placemark><Placemark><name>BLOOMSBURG UNIVERSITY OF PENNSYLVANIA</name><description>NCAA D2</description><ExtendedData><Data name="ipedsid"><value>211158</value></Data><Data name="name"><value>BLOOMSBURG UNIVERSITY OF PENNSYLVANIA</value></Data><Data name="division"><value>NCAA D2</value></Data><Data name="within_hours_away"><value>5</value></Data></ExtendedData><Point><coordinates>-76.44642,41.00797</coordinates></Point></Placemark><Placemark><name>BRIDGEWATER COLLEGE</name><description>NCAA D3</description><ExtendedData><Data name="ipedsid"><value>231581</value></Data><Data name="name"><value>BRIDGEWATER COLLEGE</value></Data><Data name="division"><value>NCAA D3</value></Data><Data name="within_hours_away"><value>3</value></Data></ExtendedData><Point><coordinates>-78.96905,38.37841</coordinates></Point></Placemark><Placemark><name>BROOKDALE COMMUNITY COLLEGE</name><description>JC</description><ExtendedData><Data name="ipedsid"><value>183859</value></Data><Data name="name"><value>BROOKDALE COMMUNITY COLLEGE</value></Data><Data name="division"><value>JC</value></Data><Data name="within_hours_away"><value>5</value></Data></ExtendedData><Point><coordinates>-74.1327,40.32491</coordinates></Point></Placemark><Placemark><name>BUCKNELL UNIVERSITY</name><description>NCAA D1</description><ExtendedData><Data name="ipedsid"><value>211291</value></Data><Data name="name"><value>BUCKNELL UNIVERSITY</value></Data><Data name="division"><value>NCAA D1</value></Data><Data name="within_hours_away"><value>5</value></Data></ExtendedData><Point><coordinates>-76.88523,40.95366</coordinates></Point></Placemark><Placemark><name>BUCKS COUNTY COMMUNITY COLLEGE</name><description>JC</description><ExtendedData><Data name="ipedsid"><value>211307</value></Data><Data name="name"><value>BUCKS COUNTY COMMUNITY COLLEGE</value></Data><Data name="division"><value>JC</value></Data><Data name="within_hours_away"><value>4</value></Data></ExtendedData><Point><coordinates>-74.96586,40.23912</coordinates></Point></Placemark><Placemark><name>BUTLER COUNTY COMMUNITY COLLEGE</name><description>JC</description><ExtendedData><Data name="ipedsid"><value>211343</value></Data><Data name="name"><value>BUTLER COUNTY COMMUNITY COLLEGE</value></Data><Data name="division"><value>JC</value></Data><Data name="within_hours_away"><value>5</value></Data></ExtendedData><Point><coordinates>-79.91112,40.82999</coordinates></Point></Placemark><Placemark><name>CABRINI UNIVERSITY</name><description>NCAA D3</description><ExtendedData><Data name="ipedsid"><value>211352</value></Data><Data name="name"><value>CABRINI UNIVERSITY</value></Data><Data name="division"><value>NCAA D3</value></Data><Data name="within_hours_away"><value>4</value></Data></ExtendedData><Point><coordinates>-75.37214,40.05461</coordinates></Point></Placemark><Placemark><name>CALDWELL UNIVERSITY</name><description>NCAA D2</description><ExtendedData><Data name="ipedsid"><value>183910</value></Data><Data name="name"><value>CALDWELL UNIVERSITY</value></Data><Data name="division"><value>NCAA D2</value></Data><Data name="within_hours_away"><value>5</value></Data></ExtendedData><Point><coordinates>-74.27228,40.83404</coordinates></Point></Placemark><Placemark><name>CALIFORNIA UNIVERSITY OF PENNSYLVANIA</name><description>NCAA D2</description><ExtendedData><Data name="ipedsid"><value>211361</value></Data><Data name="name"><value>CALIFORNIA UNIVERSITY OF PENNSYLVANIA</value></Data><Data name="division"><value>NCAA D2</value></Data><Data name="within_hours_away"><value>5</value></Data></ExtendedData><Point><coordinates>-79.88447,40.06644</coordinates></Point></Placemark><Placemark><name>CAMDEN COUNTY COLLEGE</name><description>JC</description><ExtendedData><Data name="ipedsid"><value>183938</value></Data><Data name="name"><value>CAMDEN COUNTY COLLEGE</value></Data><Data name="division"><value>JC</value></Data><Data name="within_hours_away"><value>4</value></Data></ExtendedData><Point><coordinates>-75.04045,39.78505</coordinates></Point></Placemark><Placemark><name>CATHOLIC UNIVERSITY OF AMERICA</name><description>NCAA D3</description><ExtendedData><Data name="ipedsid"><value>131283</value></Data><Data name="name"><value>CATHOLIC UNIVERSITY OF AMERICA</value></Data><Data name="division"><value>NCAA D3</value></Data><Data name="within_hours_away"><value>2</value></Data></ExtendedData><Point><coordinates>-76.99897,38.93576</coordinates></Point></Placemark><Placemark><name>CECIL COLLEGE</name><description>JC</description><ExtendedData><Data name="ipedsid"><value>162104</value></Data><Data name="name"><value>CECIL COLLEGE</value></Data><Data name="division"><value>JC</value></Data><Data name="within_hours_away"><value>3</value></Data></ExtendedData><Point><coordinates>-75.95599,39.64223</coordinates></Point></Placemark><Placemark><name>CHATHAM UNIVERSITY</name><description>NCAA D3</description><ExtendedData><Data name="ipedsid"><value>211556</value></Data><Data name="name"><value>CHATHAM UNIVERSITY</value></Data><Data name="division"><value>NCAA D3</value></Data><Data name="within_hours_away"><value>5</value></Data></ExtendedData><Point><coordinates>-79.92609,40.44848</coordinates></Point></Placemark><Placemark><name>CHESAPEAKE COLLEGE</name><description>JC</description><ExtendedData><Data name="ipedsid"><value>162168</value></Data><Data name="name"><value>CHESAPEAKE COLLEGE</value></Data><Data name="division"><value>JC</value></Data><Data name="within_hours_away"><value>3</value></Data></ExtendedData><Point><coordinates>-76.08308,38.95179</coordinates></Point></Placemark><Placemark><name>CHESTNUT HILL COLLEGE</name><description>NCAA D2</description><ExtendedData><Data name="ipedsid"><value>211583</value></Data><Data name="name"><value>CHESTNUT HILL COLLEGE</value></Data><Data name="division"><value>NCAA D2</value></Data><Data name="within_hours_away"><value>4</value></Data></ExtendedData><Point><coordinates>-75.22887,40.08682</coordinates></Point></Placemark><Placemark><name>CHOWAN UNIVERSITY</name><description>NCAA D2</description><ExtendedData><Data name="ipedsid"><value>198303</value></Data><Data name="name"><value>CHOWAN UNIVERSITY</value></Data><Data name="division"><value>NCAA D2</value></Data><Data name="within_hours_away"><value>5</value></Data></ExtendedData><Point><coordinates>-77.09912,36.43625</coordinates></Point></Placemark><Placemark><name>CHRISTOPHER NEWPORT UNIVERSITY</name><description>NCAA D3</description><ExtendedData><Data name="ipedsid"><value>231712</value></Data><Data name="name"><value>CHRISTOPHER NEWPORT UNIVERSITY</value></Data><Data name="division"><value>NCAA D3</value></Data><Data name="within_hours_away"><value>4</value></Data></ExtendedData><Point><coordinates>-76.49511,37.06332</coordinates></Point></Placemark><Placemark><name>CLARKS SUMMIT UNIVERSITY</name><description>NCAA D3</description><ExtendedData><Data name="ipedsid"><value>211024</value></Data><Data name="name"><value>CLARKS SUMMIT UNIVERSITY</value></Data><Data name="division"><value>NCAA D3</value></Data><Data name="within_hours_away"><value>5</value></Data></ExtendedData><Point><coordinates>-75.68427,41.4962</coordinates></Point></Placemark><Placemark><name>COLLEGE OF SOUTHERN MARYLAND</name><description>JC</description><ExtendedData><Data name="ipedsid"><value>162122</value></Data><Data name="name"><value>COLLEGE OF SOUTHERN MARYLAND</value></Data><Data name="division"><value>JC</value></Data><Data name="within_hours_away"><value>2</value></Data></ExtendedData><Point><coordinates>-77.00933,38.55962</coordinates></Point></Placemark><Placemark><name>COMMUNITY COLLEGE OF ALLEGHENY COUNTY</name><description>JC</description><ExtendedData><Data name="ipedsid"><value>210605</value></Data><Data name="name"><value>COMMUNITY COLLEGE OF ALLEGHENY COUNTY</value></Data><Data name="division"><value>JC</value></Data><Data name="within_hours_away"><value>5</value></Data></ExtendedData><Point><coordinates>-80.01397,40.44932</coordinates></Point></Placemark><Placemark><name>CONCORD UNIVERSITY</name><description>NCAA D2</description><ExtendedData><Data name="ipedsid"><value>237330</value></Data><Data name="name"><value>CONCORD UNIVERSITY</value></Data><Data name="division"><value>NCAA D2</value></Data><Data name="within_hours_away"><value>5</value></Data></ExtendedData><Point><coordinates>-81.00568,37.4252</coordinates></Point></Placemark><Placemark><name>COPPIN STATE UNIVERSITY</name><description>NCAA D1</description><ExtendedData><Data name="ipedsid"><value>162283</value></Data><Data name="name"><value>COPPIN STATE UNIVERSITY</value></Data><Data name="division"><value>NCAA D1</value></Data><Data name="within_hours_away"><value>2</value></Data></ExtendedData><Point><coordinates>-76.65857,39.31107</coordinates></Point></Placemark><Placemark><name>DAVIS &amp; ELKINS COLLEGE</name><description>NCAA D2</description><ExtendedData><Data name="ipedsid"><value>237358</value></Data><Data name="name"><value>DAVIS &amp; ELKINS COLLEGE</value></Data><Data name="division"><value>NCAA D2</value></Data><Data name="within_hours_away"><value>4</value></Data></ExtendedData><Point><coordinates>-79.84588,38.93045</coordinates></Point></Placemark><Placemark><name>DELAWARE COUNTY COMMUNITY COLLEGE</name><description>JC</description><ExtendedData><Data name="ipedsid"><value>211927</value></Data><Data name="name"><value>DELAWARE COUNTY COMMUNITY COLLEGE</value></Data><Data name="division"><value>JC</value></Data><Data name="within_hours_away"><value>4</value></Data></ExtendedData><Point><coordinates>-75.39311,39.96669</coordinates></Point></Placemark><Placemark><name>DELAWARE STATE UNIVERSITY</name><description>NCAA D1</description><ExtendedData><Data name="ipedsid"><value>130934</value></Data><Data name="name"><value>DELAWARE STATE UNIVERSITY</value></Data><Data name="division"><value>NCAA D1</value></Data><Data name="within_hours_away"><value>4</value></Data></ExtendedData><Point><coordinates>-75.54056,39.18718</coordinates></Point></Placemark><Placemark><name>DELAWARE VALLEY UNIVERSITY</name><description>NCAA D3</description><ExtendedData><Data name="ipedsid"><value>211981</value></Data><Data name="name"><value>DELAWARE VALLEY UNIVERSITY</value></Data><Data name="division"><value>NCAA D3</value></Data><Data name="within_hours_away"><value>4</value></Data></ExtendedData><Point><coordinates>-75.15828,40.29791</coordinates></Point></Placemark><Placemark><name>DESALES UNIVERSITY</name><description>NCAA D3</description><ExtendedData><Data name="ipedsid"><value>210739</value></Data><Data name="name"><value>DESALES UNIVERSITY</value></Data><Data name="division"><value>NCAA D3</value></Data><Data name="within_hours_away"><value>5</value></Data></ExtendedData><Point><coordinates>-75.3766,40.54013</coordinates></Point></Placemark><Placemark><name>DICKINSON COLLEGE</name><description>NCAA D3</description><ExtendedData><Data name="ipedsid"><value>212009</value></Data><Data name="name"><value>DICKINSON COLLEGE</value></Data><Data name="division"><value>NCAA D3</value></Data><Data name="within_hours_away"><value>3</value></Data></ExtendedData><Point><coordinates>-77.19786,40.20278</coordinates></Point></Placemark><Placemark><name>DREW UNIVERSITY</name><description>NCAA D3</description><ExtendedData><Data name="ipedsid"><value>184348</value></Data><Data name="name"><value>DREW UNIVERSITY</value></Data><Data name="division"><value>NCAA D3</value></Data><Data name="within_hours_away"><value>5</value></Data></ExtendedData><Point><coordinates>-74.42791,40.76066</coordinates></Point></Placemark><Placemark><name>DUKE UNIVERSITY</name><description>NCAA D1</description><ExtendedData><Data name="ipedsid"><value>198419</value></Data><Data name="name"><value>DUKE UNIVERSITY</value></Data><Data name="division"><value>NCAA D1</value></Data><Data name="within_hours_away"><value>5</value></Data></ExtendedData><Point><coordinates>-78.93865,36.00231</coordinates></Point></Placemark><Placemark><name>EAST STROUDSBURG UNIVERSITY OF PENNSYLVANIA</name><description>NCAA D2</description><ExtendedData><Data name="ipedsid"><value>212115</value></Data><Data name="name"><value>EAST STROUDSBURG UNIVERSITY OF PENNSYLVANIA</value></Data><Data name="division"><value>NCAA D2</value></Data><Data name="within_hours_away"><value>5</value></Data></ExtendedData><Point><coordinates>-75.17378,40.99701</coordinates></Point></Placemark><Placemark><name>EASTERN MENNONITE UNIVERSITY</name><description>NCAA D3</description><ExtendedData><Data name="ipedsid"><value>232043</value></Data><Data name="name"><value>EASTERN MENNONITE UNIVERSITY</value></Data><Data name="division"><value>NCAA D3</value></Data><Data name="within_hours_away"><value>2</value></Data></ExtendedData><Point><coordinates>-78.878,38.47007</coordinates></Point></Placemark><Placemark><name>EASTERN UNIVERSITY</name><description>NCAA D3</description><ExtendedData><Data name="ipedsid"><value>212133</value></Data><Data name="name"><value>EASTERN UNIVERSITY</value></Data><Data name="division"><value>NCAA D3</value></Data><Data name="within_hours_away"><value>4</value></Data></ExtendedData><Point><coordinates>-75.37304,40.05207</coordinates></Point></Placemark><Placemark><name>ELIZABETHTOWN COLLEGE</name><description>NCAA D3</description><ExtendedData><Data name="ipedsid"><value>212197</value></Data><Data name="name"><value>ELIZABETHTOWN COLLEGE</value></Data><Data name="division"><value>NCAA D3</value></Data><Data name="within_hours_away"><value>3</value></Data></ExtendedData><Point><coordinates>-76.59151,40.15003</coordinates></Point></Placemark><Placemark><name>FAIRMONT STATE UNIVERSITY</name><description>NCAA D2</description><ExtendedData><Data name="ipedsid"><value>237367</value></Data><Data name="name"><value>FAIRMONT STATE UNIVERSITY</value></Data><Data name="division"><value>NCAA D2</value></Data><Data name="within_hours_away"><value>5</value></Data></ExtendedData><Point><coordinates>-80.16206,39.48595</coordinates></Point></Placemark><Placemark><name>FELICIAN UNIVERSITY</name><description>NCAA D2</description><ExtendedData><Data name="ipedsid"><value>184612</value></Data><Data name="name"><value>FELICIAN UNIVERSITY</value></Data><Data name="division"><value>NCAA D2</value></Data><Data name="within_hours_away"><value>5</value></Data></ExtendedData><Point><coordinates>-74.09643,40.86726</coordinates></Point></Placemark><Placemark><name>FERRUM COLLEGE</name><description>NCAA D3</description><ExtendedData><Data name="ipedsid"><value>232089</value></Data><Data name="name"><value>FERRUM COLLEGE</value></Data><Data name="division"><value>NCAA D3</value></Data><Data name="within_hours_away"><value>5</value></Data></ExtendedData><Point><coordinates>-80.0209,36.92661</coordinates></Point></Placemark><Placemark><name>FORDHAM UNIVERSITY</name><description>NCAA D1</description><ExtendedData><Data name="ipedsid"><value>191241</value></Data><Data name="name"><value>FORDHAM UNIVERSITY</value></Data><Data name="division"><value>NCAA D1</value></Data><Data name="within_hours_away"><value>5</value></Data></ExtendedData><Point><coordinates>-73.88988,40.86137</coordinates></Point></Placemark><Placemark><name>FREDERICK COMMUNITY COLLEGE</name><description>JC</description><ExtendedData><Data name="ipedsid"><value>162557</value></Data><Data name="name"><value>FREDERICK COMMUNITY COLLEGE</value></Data><Data name="division"><value>JC</value></Data><Data name="within_hours_away"><value>2</value></Data></ExtendedData><Point><coordinates>-77.41788,39.45225</coordinates></Point></Placemark><Placemark><name>FROSTBURG STATE UNIVERSITY</name><description>NCAA D2</description><ExtendedData><Data name="ipedsid"><value>162584</value></Data><Data name="name"><value>FROSTBURG STATE UNIVERSITY</value></Data><Data name="division"><value>NCAA D2</value></Data><Data name="within_hours_away"><value>3</value></Data></ExtendedData><Point><coordinates>-78.9339,39.65148</coordinates></Point></Placemark><Placemark><name>GALLAUDET UNIVERSITY</name><description>NCAA D3</description><ExtendedData><Data name="ipedsid"><value>131450</value></Data><Data name="name"><value>GALLAUDET UNIVERSITY</value></Data><Data name="division"><value>NCAA D3</value></Data><Data name="within_hours_away"><value>2</value></Data></ExtendedData><Point><coordinates>-76.99371,38.90734</coordinates></Point></Placemark><Placemark><name>GARRETT COLLEGE</name><description>JC</description><ExtendedData><Data name="ipedsid"><value>162609</value></Data><Data name="name"><value>GARRETT COLLEGE</value></Data><Data name="division"><value>JC</value></Data><Data name="within_hours_away"><value>4</value></Data></ExtendedData><Point><coordinates>-79.34326,39.56066</coordinates></Point></Placemark><Placemark><name>GENEVA COLLEGE</name><description>NCAA D3</description><ExtendedData><Data name="ipedsid"><value>212656</value></Data><Data name="name"><value>GENEVA COLLEGE</value></Data><Data name="division"><value>NCAA D3</value></Data><Data name="within_hours_away"><value>5</value></Data></ExtendedData><Point><coordinates>-80.32103,40.77216</coordinates></Point></Placemark><Placemark><name>GEORGE MASON UNIVERSITY</name><description>NCAA D1</description><ExtendedData><Data name="ipedsid"><value>232186</value></Data><Data name="name"><value>GEORGE MASON UNIVERSITY</value></Data><Data name="division"><value>NCAA D1</value></Data><Data name="within_hours_away"><value>1</value></Data></ExtendedData><Point><coordinates>-77.3079,38.83087</coordinates></Point></Placemark><Placemark><name>GEORGE WASHINGTON UNIVERSITY</name><description>NCAA D1</description><ExtendedData><Data name="ipedsid"><value>131469</value></Data><Data name="name"><value>GEORGE WASHINGTON UNIVERSITY</value></Data><Data name="division"><value>NCAA D1</value></Data><Data name="within_hours_away"><value>1</value></Data></ExtendedData><Point><coordinates>-77.04627,38.89911</coordinates></Point></Placemark><Placemark><name>GEORGETOWN UNIVERSITY</name><description>NCAA D1</description><ExtendedData><Data name="ipedsid"><value>131496</value></Data><Data name="name"><value>GEORGETOWN UNIVERSITY</value></Data><Data name="division"><value>NCAA D1</value></Data><Data name="within_hours_away"><value>1</value></Data></ExtendedData><Point><coordinates>-77.07345,38.90876</coordinates></Point></Placemark><Placemark><name>GETTYSBURG COLLEGE</name><description>NCAA D3</description><ExtendedData><Data name="ipedsid"><value>212674</value></Data><Data name="name"><value>GETTYSBURG COLLEGE</value></Data><Data name="division"><value>NCAA D3</value></Data><Data name="within_hours_away"><value>2</value></Data></ExtendedData><Point><coordinates>-77.23458,39.83586</coordinates></Point></Placemark><Placemark><name>GLENVILLE STATE COLLEGE</name><description>NCAA D2</description><ExtendedData><Data name="ipedsid"><value>237385</value></Data><Data name="name"><value>GLENVILLE STATE COLLEGE</value></Data><Data name="division"><value>NCAA D2</value></Data><Data name="within_hours_away"><value>5</value></Data></ExtendedData><Point><coordinates>-80.83342,38.93547</coordinates></Point></Placemark><Placemark><name>GOLDEY-BEACOM COLLEGE</name><description>NCAA D2</description><ExtendedData><Data name="ipedsid"><value>130989</value></Data><Data name="name"><value>GOLDEY-BEACOM COLLEGE</value></Data><Data name="division"><value>NCAA D2</value></Data><Data name="within_hours_away"><value>3</value></Data></ExtendedData><Point><coordinates>-75.68883,39.74102</coordinates></Point></Placemark><Placemark><name>GWYNEDD MERCY UNIVERSITY</name><description>NCAA D3</description><ExtendedData><Data name="ipedsid"><value>212832</value></Data><Data name="name"><value>GWYNEDD MERCY UNIVERSITY</value></Data><Data name="division"><value>NCAA D3</value></Data><Data name="within_hours_away"><value>4</value></Data></ExtendedData><Point><coordinates>-75.23804,40.19756</coordinates></Point></Placemark><Placemark><name>HAGERSTOWN COMMUNITY COLLEGE</name><description>JC</description><ExtendedData><Data name="ipedsid"><value>162690</value></Data><Data name="name"><value>HAGERSTOWN COMMUNITY COLLEGE</value></Data><Data name="division"><value>JC</value></Data><Data name="within_hours_away"><value>2</value></Data></ExtendedData><Point><coordinates>-77.66737,39.63098</coordinates></Point></Placemark><Placemark><name>HAMPDEN-SYDNEY COLLEGE</name><description>NCAA D3</description><ExtendedData><Data name="ipedsid"><value>232256</value></Data><Data name="name"><value>HAMPDEN-SYDNEY COLLEGE</value></Data><Data name="division"><value>NCAA D3</value></Data><Data name="within_hours_away"><value>4</value></Data></ExtendedData><Point><coordinates>-78.46138,37.24252</coordinates></Point></Placemark><Placemark><name>HARFORD COMMUNITY COLLEGE</name><description>JC</description><ExtendedData><Data name="ipedsid"><value>162706</value></Data><Data name="name"><value>HARFORD COMMUNITY COLLEGE</value></Data><Data name="division"><value>JC</value></Data><Data name="within_hours_away"><value>3</value></Data></ExtendedData><Point><coordinates>-76.28178,39.56139</coordinates></Point></Placemark><Placemark><name>HAVERFORD COLLEGE</name><description>NCAA D3</description><ExtendedData><Data name="ipedsid"><value>212911</value></Data><Data name="name"><value>HAVERFORD COLLEGE</value></Data><Data name="division"><value>NCAA D3</value></Data><Data name="within_hours_away"><value>4</value></Data></ExtendedData><Point><coordinates>-75.30511,40.00733</coordinates></Point></Placemark><Placemark><name>HOOD COLLEGE</name><description>NCAA D3</description><ExtendedData><Data name="ipedsid"><value>162760</value></Data><Data name="name"><value>HOOD COLLEGE</value></Data><Data name="division"><value>NCAA D3</value></Data><Data name="within_hours_away"><value>2</value></Data></ExtendedData><Point><coordinates>-77.4193,39.42191</coordinates></Point></Placemark><Placemark><name>IMMACULATA UNIVERSITY</name><description>NCAA D3</description><ExtendedData><Data name="ipedsid"><value>213011</value></Data><Data name="name"><value>IMMACULATA UNIVERSITY</value></Data><Data name="division"><value>NCAA D3</value></Data><Data name="within_hours_away"><value>4</value></Data></ExtendedData><Point><coordinates>-75.57066,40.02793</coordinates></Point></Placemark><Placemark><name>JAMES MADISON UNIVERSITY</name><description>NCAA D1</description><ExtendedData><Data name="ipedsid"><value>232423</value></Data><Data name="name"><value>JAMES MADISON UNIVERSITY</value></Data><Data name="division"><value>NCAA D1</value></Data><Data name="within_hours_away"><value>2</value></Data></ExtendedData><Point><coordinates>-78.87168,38.43536</coordinates></Point></Placemark><Placemark><name>JOHNS HOPKINS UNIVERSITY</name><description>NCAA D3</description><ExtendedData><Data name="ipedsid"><value>162928</value></Data><Data name="name"><value>JOHNS HOPKINS UNIVERSITY</value></Data><Data name="division"><value>NCAA D3</value></Data><Data name="within_hours_away"><value>2</value></Data></ExtendedData><Point><coordinates>-76.62073,39.32983</coordinates></Point></Placemark><Placemark><name>JUNIATA COLLEGE</name><description>NCAA D3</description><ExtendedData><Data name="ipedsid"><value>213251</value></Data><Data name="name"><value>JUNIATA COLLEGE</value></Data><Data name="division"><value>NCAA D3</value></Data><Data name="within_hours_away"><value>4</value></Data></ExtendedData><Point><coordinates>-78.01511,40.49952</coordinates></Point></Placemark><Placemark><name>KEAN UNIVERSITY</name><description>NCAA D3</description><ExtendedData><Data name="ipedsid"><value>185262</value></Data><Data name="name"><value>KEAN UNIVERSITY</value></Data><Data name="division"><value>NCAA D3</value></Data><Data name="within_hours_away"><value>5</value></Data></ExtendedData><Point><coordinates>-74.2347,40.67947</coordinates></Point></Placemark><Placemark><name>KUTZTOWN UNIVERSITY OF PENNSYLVANIA</name><description>NCAA D2</description><ExtendedData><Data name="ipedsid"><value>213349</value></Data><Data name="name"><value>KUTZTOWN UNIVERSITY OF PENNSYLVANIA</value></Data><Data name="division"><value>NCAA D2</value></Data><Data name="within_hours_away"><value>4</value></Data></ExtendedData><Point><coordinates>-75.78537,40.51333</coordinates></Point></Placemark><Placemark><name>LACKAWANNA COLLEGE</name><description>JC</description><ExtendedData><Data name="ipedsid"><value>213376</value></Data><Data name="name"><value>LACKAWANNA COLLEGE</value></Data><Data name="division"><value>JC</value></Data><Data name="within_hours_away"><value>5</value></Data></ExtendedData><Point><coordinates>-75.65928,41.41148</coordinates></Point></Placemark><Placemark><name>LAFAYETTE COLLEGE</name><description>NCAA D1</description><ExtendedData><Data name="ipedsid"><value>213385</value></Data><Data name="name"><value>LAFAYETTE COLLEGE</value></Data><Data name="division"><value>NCAA D1</value></Data><Data name="within_hours_away"><value>5</value></Data></ExtendedData><Point><coordinates>-75.21135,40.69953</coordinates></Point></Placemark><Placemark><name>LANCASTER BIBLE COLLEGE</name><description>NCAA D3</description><ExtendedData><Data name="ipedsid"><value>213400</value></Data><Data name="name"><value>LANCASTER BIBLE COLLEGE</value></Data><Data name="division"><value>NCAA D3</value></Data><Data name="within_hours_away"><value>4</value></Data></ExtendedData><Point><coordinates>-76.28813,40.07365</coordinates></Point></Placemark><Placemark><name>LEBANON VALLEY COLLEGE</name><description>NCAA D3</description><ExtendedData><Data name="ipedsid"><value>213507</value></Data><Data name="name"><value>LEBANON VALLEY COLLEGE</value></Data><Data name="division"><value>NCAA D3</value></Data><Data name="within_hours_away"><value>4</value></Data></ExtendedData><Point><coordinates>-76.5138,40.33176</coordinates></Point></Placemark><Placemark><name>LEHIGH CARBON COMMUNITY COLLEGE</name><description>JC</description><ExtendedData><Data name="ipedsid"><value>213525</value></Data><Data name="name"><value>LEHIGH CARBON COMMUNITY COLLEGE</value></Data><Data name="division"><value>JC</value></Data><Data name="within_hours_away"><value>5</value></Data></ExtendedData><Point><coordinates>-75.61192,40.66392</coordinates></Point></Placemark><Placemark><name>LEHIGH UNIVERSITY</name><description>NCAA D1</description><ExtendedData><Data name="ipedsid"><value>213543</value></Data><Data name="name"><value>LEHIGH UNIVERSITY</value></Data><Data name="division"><value>NCAA D1</value></Data><Data name="within_hours_away"><value>5</value></Data></ExtendedData><Point><coordinates>-75.37714,40.60665</coordinates></Point></Placemark><Placemark><name>LIBERTY UNIVERSITY</name><description>NCAA D1</description><ExtendedData><Data name="ipedsid"><value>232557</value></Data><Data name="name"><value>LIBERTY UNIVERSITY</value></Data><Data name="division"><value>NCAA D1</value></Data><Data name="within_hours_away"><value>4</value></Data></ExtendedData><Point><coordinates>-79.17965,37.35034</coordinates></Point></Placemark><Placemark><name>LOCK HAVEN UNIVERSITY</name><description>NCAA D2</description><ExtendedData><Data name="ipedsid"><value>213613</value></Data><Data name="name"><value>LOCK HAVEN UNIVERSITY</value></Data><Data name="division"><value>NCAA D2</value></Data><Data name="within_hours_away"><value>5</value></Data></ExtendedData><Point><coordinates>-77.46225,41.14181</coordinates></Point></Placemark><Placemark><name>LONGWOOD UNIVERSITY</name><description>NCAA D1</description><ExtendedData><Data name="ipedsid"><value>232566</value></Data><Data name="name"><value>LONGWOOD UNIVERSITY</value></Data><Data name="division"><value>NCAA D1</value></Data><Data name="within_hours_away"><value>4</value></Data></ExtendedData><Point><coordinates>-78.39584,37.30105</coordinates></Point></Placemark><Placemark><name>LOUISBURG COLLEGE</name><description>JC</description><ExtendedData><Data name="ipedsid"><value>198871</value></Data><Data name="name"><value>LOUISBURG COLLEGE</value></Data><Data name="division"><value>JC</value></Data><Data name="within_hours_away"><value>5</value></Data></ExtendedData><Point><coordinates>-78.29967,36.10542</coordinates></Point></Placemark><Placemark><name>LUZERNE COUNTY COMMUNITY COLLEGE</name><description>JC</description><ExtendedData><Data name="ipedsid"><value>213659</value></Data><Data name="name"><value>LUZERNE COUNTY COMMUNITY COLLEGE</value></Data><Data name="division"><value>JC</value></Data><Data name="within_hours_away"><value>5</value></Data></ExtendedData><Point><coordinates>-75.99324,41.19314</coordinates></Point></Placemark><Placemark><name>LYCOMING COLLEGE</name><description>NCAA D3</description><ExtendedData><Data name="ipedsid"><value>213668</value></Data><Data name="name"><value>LYCOMING COLLEGE</value></Data><Data name="division"><value>NCAA D3</value></Data><Data name="within_hours_away"><value>5</value></Data></ExtendedData><Point><coordinates>-77.00047,41.24611</coordinates></Point></Placemark><Placemark><name>MANHATTAN COLLEGE</name><description>NCAA D1</description><ExtendedData><Data name="ipedsid"><value>192703</value></Data><Data name="name"><value>MANHATTAN COLLEGE</value></Data><Data name="division"><value>NCAA D1</value></Data><Data name="within_hours_away"><value>5</value></Data></ExtendedData><Point><coordinates>-73.90185,40.88973</coordinates></Point></Placemark><Placemark><name>MARY BALDWIN UNIVERSITY</name><description>NCAA D3</description><ExtendedData><Data name="ipedsid"><value>232672</value></Data><Data name="name"><value>MARY BALDWIN UNIVERSITY</value></Data><Data name="division"><value>NCAA D3</value></Data><Data name="within_hours_away"><value>3</value></Data></ExtendedData><Point><coordinates>-79.06834,38.15477</coordinates></Point></Placemark><Placemark><name>MARYWOOD UNIVERSITY</name><description>NCAA D3</description><ExtendedData><Data name="ipedsid"><value>213826</value></Data><Data name="name"><value>MARYWOOD UNIVERSITY</value></Data><Data name="division"><value>NCAA D3</value></Data><Data name="within_hours_away"><value>5</value></Data></ExtendedData><Point><coordinates>-75.63419,41.43455</coordinates></Point></Placemark><Placemark><name>MCDANIEL COLLEGE</name><description>NCAA D3</description><ExtendedData><Data name="ipedsid"><value>164270</value></Data><Data name="name"><value>MCDANIEL COLLEGE</value></Data><Data name="division"><value>NCAA D3</value></Data><Data name="within_hours_away"><value>2</value></Data></ExtendedData><Point><coordinates>-77.00163,39.58483</coordinates></Point></Placemark><Placemark><name>MERCER COUNTY COMMUNITY COLLEGE</name><description>JC</description><ExtendedData><Data name="ipedsid"><value>185509</value></Data><Data name="name"><value>MERCER COUNTY COMMUNITY COLLEGE</value></Data><Data name="division"><value>JC</value></Data><Data name="within_hours_away"><value>4</value></Data></ExtendedData><Point><coordinates>-74.65076,40.25435</coordinates></Point></Placemark><Placemark><name>MILLERSVILLE UNIVERSITY OF PENNSYLVANIA</name><description>NCAA D2</description><ExtendedData><Data name="ipedsid"><value>214041</value></Data><Data name="name"><value>MILLERSVILLE UNIVERSITY OF PENNSYLVANIA</value></Data><Data name="division"><value>NCAA D2</value></Data><Data name="within_hours_away"><value>4</value></Data></ExtendedData><Point><coordinates>-76.35259,39.99572</coordinates></Point></Placemark><Placemark><name>MISERICORDIA UNIVERSITY</name><description>NCAA D3</description><ExtendedData><Data name="ipedsid"><value>214069</value></Data><Data name="name"><value>MISERICORDIA UNIVERSITY</value></Data><Data name="division"><value>NCAA D3</value></Data><Data name="within_hours_away"><value>5</value></Data></ExtendedData><Point><coordinates>-75.97159,41.34527</coordinates></Point></Placemark><Placemark><name>MONMOUTH UNIVERSITY</name><description>NCAA D1</description><ExtendedData><Data name="ipedsid"><value>185572</value></Data><Data name="name"><value>MONMOUTH UNIVERSITY</value></Data><Data name="division"><value>NCAA D1</value></Data><Data name="within_hours_away"><value>5</value></Data></ExtendedData><Point><coordinates>-74.00648,40.28009</coordinates></Point></Placemark><Placemark><name>MONTCLAIR STATE UNIVERSITY</name><description>NCAA D3</description><ExtendedData><Data name="ipedsid"><value>185590</value></Data><Data name="name"><value>MONTCLAIR STATE UNIVERSITY</value></Data><Data name="division"><value>NCAA D3</value></Data><Data name="within_hours_away"><value>5</value></Data></ExtendedData><Point><coordinates>-74.19854,40.85912</coordinates></Point></Placemark><Placemark><name>MONTGOMERY COLLEGE</name><description>JC</description><ExtendedData><Data name="ipedsid"><value>163426</value></Data><Data name="name"><value>MONTGOMERY COLLEGE</value></Data><Data name="division"><value>JC</value></Data><Data name="within_hours_away"><value>2</value></Data></ExtendedData><Point><coordinates>-77.15941,39.09851</coordinates></Point></Placemark><Placemark><name>MOUNT ST. MARY'S UNIVERSITY</name><description>NCAA D1</description><ExtendedData><Data name="ipedsid"><value>163462</value></Data><Data name="name"><value>MOUNT ST. MARY'S UNIVERSITY</value></Data><Data name="division"><value>NCAA D1</value></Data><Data name="within_hours_away"><value>2</value></Data></ExtendedData><Point><coordinates>-77.35217,39.6806</coordinates></Point></Placemark><Placemark><name>MUHLENBERG COLLEGE</name><description>NCAA D3</description><ExtendedData><Data name="ipedsid"><value>214175</value></Data><Data name="name"><value>MUHLENBERG COLLEGE</value></Data><Data name="division"><value>NCAA D3</value></Data><Data name="within_hours_away"><value>4</value></Data></ExtendedData><Point><coordinates>-75.50831,40.59753</coordinates></Point></Placemark><Placemark><name>NEUMANN UNIVERSITY</name><description>NCAA D3</description><ExtendedData><Data name="ipedsid"><value>214272</value></Data><Data name="name"><value>NEUMANN UNIVERSITY</value></Data><Data name="division"><value>NCAA D3</value></Data><Data name="within_hours_away"><value>4</value></Data></ExtendedData><Point><coordinates>-75.44,39.87489</coordinates></Point></Placemark><Placemark><name>NEW JERSEY CITY UNIVERSITY</name><description>NCAA D3</description><ExtendedData><Data name="ipedsid"><value>185129</value></Data><Data name="name"><value>NEW JERSEY CITY UNIVERSITY</value></Data><Data name="division"><value>NCAA D3</value></Data><Data name="within_hours_away"><value>5</value></Data></ExtendedData><Point><coordinates>-74.08724,40.70996</coordinates></Point></Placemark><Placemark><name>NEW JERSEY INSTITUTE OF TECHNOLOGY</name><description>NCAA D1</description><ExtendedData><Data name="ipedsid"><value>185828</value></Data><Data name="name"><value>NEW JERSEY INSTITUTE OF TECHNOLOGY</value></Data><Data name="division"><value>NCAA D1</value></Data><Data name="within_hours_away"><value>5</value></Data></ExtendedData><Point><coordinates>-74.17711,40.74201</coordinates></Point></Placemark><Placemark><name>NEW YORK UNIVERSITY</name><description>NCAA D3</description><ExtendedData><Data name="ipedsid"><value>193900</value></Data><Data name="name"><value>NEW YORK UNIVERSITY</value></Data><Data name="division"><value>NCAA D3</value></Data><Data name="within_hours_away"><value>5</value></Data></ExtendedData><Point><coordinates>-73.9973,40.72947</coordinates></Point></Placemark><Placemark><name>NORFOLK STATE UNIVERSITY</name><description>NCAA D1</description><ExtendedData><Data name="ipedsid"><value>232937</value></Data><Data name="name"><value>NORFOLK STATE UNIVERSITY</value></Data><Data name="division"><value>NCAA D1</value></Data><Data name="within_hours_away"><value>4</value></Data></ExtendedData><Point><coordinates>-76.26134,36.84846</coordinates></Point></Placemark><Placemark><name>NORTH CAROLINA CENTRAL UNIVERSITY</name><description>NCAA D1</description><ExtendedData><Data name="ipedsid"><value>199157</value></Data><Data name="name"><value>NORTH CAROLINA CENTRAL UNIVERSITY</value></Data><Data name="division"><value>NCAA D1</value></Data><Data name="within_hours_away"><value>5</value></Data></ExtendedData><Point><coordinates>-78.89856,35.9742</coordinates></Point></Placemark><Placemark><name>NORTH CAROLINA WESLEYAN COLLEGE</name><description>NCAA D3</description><ExtendedData><Data name="ipedsid"><value>199209</value></Data><Data name="name"><value>NORTH CAROLINA WESLEYAN COLLEGE</value></Data><Data name="division"><value>NCAA D3</value></Data><Data name="within_hours_away"><value>5</value></Data></ExtendedData><Point><coordinates>-77.77212,36.01744</coordinates></Point></Placemark><Placemark><name>NORTHAMPTON COUNTY AREA COMMUNITY COLLEGE</name><description>JC</description><ExtendedData><Data name="ipedsid"><value>214379</value></Data><Data name="name"><value>NORTHAMPTON COUNTY AREA COMMUNITY COLLEGE</value></Data><Data name="division"><value>JC</value></Data><Data name="within_hours_away"><value>5</value></Data></ExtendedData><Point><coordinates>-75.32346,40.6725</coordinates></Point></Placemark><Placemark><name>OCEAN COUNTY COLLEGE</name><description>JC</description><ExtendedData><Data name="ipedsid"><value>185873</value></Data><Data name="name"><value>OCEAN COUNTY COLLEGE</value></Data><Data name="division"><value>JC</value></Data><Data name="within_hours_away"><value>5</value></Data></ExtendedData><Point><coordinates>-74.16687,40.00784</coordinates></Point></Placemark><Placemark><name>OLD DOMINION UNIVERSITY</name><description>NCAA D1</description><ExtendedData><Data name="ipedsid"><value>232982</value></Data><Data name="name"><value>OLD DOMINION UNIVERSITY</value></Data><Data name="division"><value>NCAA D1</value></Data><Data name="within_hours_away"><value>4</value></Data></ExtendedData><Point><coordinates>-76.30969,36.88488</coordinates></Point></Placemark><Placemark><name>PACE UNIVERSITY</name><description>NCAA D2</description><ExtendedData><Data name="ipedsid"><value>194310</value></Data><Data name="name"><value>PACE UNIVERSITY</value></Data><Data name="division"><value>NCAA D2</value></Data><Data name="within_hours_away"><value>5</value></Data></ExtendedData><Point><coordinates>-74.00489,40.71169</coordinates></Point></Placemark><Placemark><name>PENNSYLVANIA COLLEGE OF TECHNOLOGY</name><description>NCAA D3</description><ExtendedData><Data name="ipedsid"><value>366252</value></Data><Data name="name"><value>PENNSYLVANIA COLLEGE OF TECHNOLOGY</value></Data><Data name="division"><value>NCAA D3</value></Data><Data name="within_hours_away"><value>5</value></Data></ExtendedData><Point><coordinates>-77.0254,41.23688</coordinates></Point></Placemark><Placemark><name>POINT PARK UNIVERSITY</name><description>NAIA</description><ExtendedData><Data name="ipedsid"><value>215442</value></Data><Data name="name"><value>POINT PARK UNIVERSITY</value></Data><Data name="division"><value>NAIA</value></Data><Data name="within_hours_away"><value>5</value></Data></ExtendedData><Point><coordinates>-80.00147,40.4385</coordinates></Point></Placemark><Placemark><name>PRINCE GEORGE'S COMMUNITY COLLEGE</name><description>JC</description><ExtendedData><Data name="ipedsid"><value>163657</value></Data><Data name="name"><value>PRINCE GEORGE'S COMMUNITY COLLEGE</value></Data><Data name="division"><value>JC</value></Data><Data name="within_hours_away"><value>2</value></Data></ExtendedData><Point><coordinates>-76.82416,38.88849</coordinates></Point></Placemark><Placemark><name>PRINCETON UNIVERSITY</name><description>NCAA D1</description><ExtendedData><Data name="ipedsid"><value>186131</value></Data><Data name="name"><value>PRINCETON UNIVERSITY</value></Data><Data name="division"><value>NCAA D1</value></Data><Data name="within_hours_away"><value>5</value></Data></ExtendedData><Point><coordinates>-74.6577,40.34711</coordinates></Point></Placemark><Placemark><name>RADFORD UNIVERSITY</name><description>NCAA D1</description><ExtendedData><Data name="ipedsid"><value>233277</value></Data><Data name="name"><value>RADFORD UNIVERSITY</value></Data><Data name="division"><value>NCAA D1</value></Data><Data name="within_hours_away"><value>5</value></Data></ExtendedData><Point><coordinates>-80.54975,37.13688</coordinates></Point></Placemark><Placemark><name>RANDOLPH-MACON COLLEGE</name><description>NCAA D3</description><ExtendedData><Data name="ipedsid"><value>233295</value></Data><Data name="name"><value>RANDOLPH-MACON COLLEGE</value></Data><Data name="division"><value>NCAA D3</value></Data><Data name="within_hours_away"><value>3</value></Data></ExtendedData><Point><coordinates>-77.47812,37.76078</coordinates></Point></Placemark><Placemark><name>RARITAN VALLEY COMMUNITY COLLEGE</name><description>JC</description><ExtendedData><Data name="ipedsid"><value>186645</value></Data><Data name="name"><value>RARITAN VALLEY COMMUNITY COLLEGE</value></Data><Data name="division"><value>JC</value></Data><Data name="within_hours_away"><value>5</value></Data></ExtendedData><Point><coordinates>-74.68742,40.61025</coordinates></Point></Placemark><Placemark><name>RICHARD BLAND COLLEGE</name><description>JC</description><ExtendedData><Data name="ipedsid"><value>233338</value></Data><Data name="name"><value>RICHARD BLAND COLLEGE</value></Data><Data name="division"><value>JC</value></Data><Data name="within_hours_away"><value>3</value></Data></ExtendedData><Point><coordinates>-77.39991,37.15695</coordinates></Point></Placemark><Placemark><name>RIDER UNIVERSITY</name><description>NCAA D1</description><ExtendedData><Data name="ipedsid"><value>186283</value></Data><Data name="name"><value>RIDER UNIVERSITY</value></Data><Data name="division"><value>NCAA D1</value></Data><Data name="within_hours_away"><value>4</value></Data></ExtendedData><Point><coordinates>-74.73696,40.28054</coordinates></Point></Placemark><Placemark><name>ROANOKE COLLEGE</name><description>NCAA D3</description><ExtendedData><Data name="ipedsid"><value>233426</value></Data><Data name="name"><value>ROANOKE COLLEGE</value></Data><Data name="division"><value>NCAA D3</value></Data><Data name="within_hours_away"><value>4</value></Data></ExtendedData><Point><coordinates>-80.0564,37.29691</coordinates></Point></Placemark><Placemark><name>ROSEMONT COLLEGE</name><description>NCAA D3</description><ExtendedData><Data name="ipedsid"><value>215691</value></Data><Data name="name"><value>ROSEMONT COLLEGE</value></Data><Data name="division"><value>NCAA D3</value></Data><Data name="within_hours_away"><value>4</value></Data></ExtendedData><Point><coordinates>-75.32992,40.03475</coordinates></Point></Placemark><Placemark><name>ROWAN UNIVERSITY</name><description>NCAA D3</description><ExtendedData><Data name="ipedsid"><value>184782</value></Data><Data name="name"><value>ROWAN UNIVERSITY</value></Data><Data name="division"><value>NCAA D3</value></Data><Data name="within_hours_away"><value>4</value></Data></ExtendedData><Point><coordinates>-75.11853,39.71058</coordinates></Point></Placemark><Placemark><name>SAINT JOSEPH'S UNIVERSITY</name><description>NCAA D1</description><ExtendedData><Data name="ipedsid"><value>215770</value></Data><Data name="name"><value>SAINT JOSEPH'S UNIVERSITY</value></Data><Data name="division"><value>NCAA D1</value></Data><Data name="within_hours_away"><value>4</value></Data></ExtendedData><Point><coordinates>-75.23833,39.99446</coordinates></Point></Placemark><Placemark><name>SAINT PETER'S UNIVERSITY</name><description>NCAA D1</description><ExtendedData><Data name="ipedsid"><value>186432</value></Data><Data name="name"><value>SAINT PETER'S UNIVERSITY</value></Data><Data name="division"><value>NCAA D1</value></Data><Data name="within_hours_away"><value>5</value></Data></ExtendedData><Point><coordinates>-74.07154,40.72714</coordinates></Point></Placemark><Placemark><name>SALEM COMMUNITY COLLEGE</name><description>JC</description><ExtendedData><Data name="ipedsid"><value>186469</value></Data><Data name="name"><value>SALEM COMMUNITY COLLEGE</value></Data><Data name="division"><value>JC</value></Data><Data name="within_hours_away"><value>3</value></Data></ExtendedData><Point><coordinates>-75.4697,39.69852</coordinates></Point></Placemark><Placemark><name>SALEM UNIVERSITY</name><description>NCAA D2</description><ExtendedData><Data name="ipedsid"><value>237783</value></Data><Data name="name"><value>SALEM UNIVERSITY</value></Data><Data name="division"><value>NCAA D2</value></Data><Data name="within_hours_away"><value>5</value></Data></ExtendedData><Point><coordinates>-80.57178,39.28868</coordinates></Point></Placemark><Placemark><name>SALISBURY UNIVERSITY</name><description>NCAA D3</description><ExtendedData><Data name="ipedsid"><value>163851</value></Data><Data name="name"><value>SALISBURY UNIVERSITY</value></Data><Data name="division"><value>NCAA D3</value></Data><Data name="within_hours_away"><value>4</value></Data></ExtendedData><Point><coordinates>-75.60575,38.3454</coordinates></Point></Placemark><Placemark><name>SETON HALL UNIVERSITY</name><description>NCAA D1</description><ExtendedData><Data name="ipedsid"><value>186584</value></Data><Data name="name"><value>SETON HALL UNIVERSITY</value></Data><Data name="division"><value>NCAA D1</value></Data><Data name="within_hours_away"><value>5</value></Data></ExtendedData><Point><coordinates>-74.24877,40.74287</coordinates></Point></Placemark><Placemark><name>SETON HILL UNIVERSITY</name><description>NCAA D2</description><ExtendedData><Data name="ipedsid"><value>215947</value></Data><Data name="name"><value>SETON HILL UNIVERSITY</value></Data><Data name="division"><value>NCAA D2</value></Data><Data name="within_hours_away"><value>5</value></Data></ExtendedData><Point><coordinates>-79.55622,40.30865</coordinates></Point></Placemark><Placemark><name>SHENANDOAH UNIVERSITY</name><description>NCAA D3</description><ExtendedData><Data name="ipedsid"><value>233541</value></Data><Data name="name"><value>SHENANDOAH UNIVERSITY</value></Data><Data name="division"><value>NCAA D3</value></Data><Data name="within_hours_away"><value>2</value></Data></ExtendedData><Point><coordinates>-78.15836,39.16603</coordinates></Point></Placemark><Placemark><name>SHEPHERD UNIVERSITY</name><description>NCAA D2</description><ExtendedData><Data name="ipedsid"><value>237792</value></Data><Data name="name"><value>SHEPHERD UNIVERSITY</value></Data><Data name="division"><value>NCAA D2</value></Data><Data name="within_hours_away"><value>2</value></Data></ExtendedData><Point><coordinates>-77.80495,39.43413</coordinates></Point></Placemark><Placemark><name>SHIPPENSBURG UNIVERSITY OF PENNSYLVANIA</name><description>NCAA D2</description><ExtendedData><Data name="ipedsid"><value>216010</value></Data><Data name="name"><value>SHIPPENSBURG UNIVERSITY OF PENNSYLVANIA</value></Data><Data name="division"><value>NCAA D2</value></Data><Data name="within_hours_away"><value>3</value></Data></ExtendedData><Point><coordinates>-77.522,40.06195</coordinates></Point></Placemark><Placemark><name>SOUTHERN VIRGINIA UNIVERSITY</name><description>NCAA D3</description><ExtendedData><Data name="ipedsid"><value>233611</value></Data><Data name="name"><value>SOUTHERN VIRGINIA UNIVERSITY</value></Data><Data name="division"><value>NCAA D3</value></Data><Data name="within_hours_away"><value>3</value></Data></ExtendedData><Point><coordinates>-79.35033,37.74068</coordinates></Point></Placemark><Placemark><name>ST. MARY'S COLLEGE OF MARYLAND</name><description>NCAA D3</description><ExtendedData><Data name="ipedsid"><value>163912</value></Data><Data name="name"><value>ST. MARY'S COLLEGE OF MARYLAND</value></Data><Data name="division"><value>NCAA D3</value></Data><Data name="within_hours_away"><value>3</value></Data></ExtendedData><Point><coordinates>-76.42575,38.18859</coordinates></Point></Placemark><Placemark><name>STEVENS INSTITUTE OF TECHNOLOGY</name><description>NCAA D3</description><ExtendedData><Data name="ipedsid"><value>186867</value></Data><Data name="name"><value>STEVENS INSTITUTE OF TECHNOLOGY</value></Data><Data name="division"><value>NCAA D3</value></Data><Data name="within_hours_away"><value>5</value></Data></ExtendedData><Point><coordinates>-74.02532,40.74477</coordinates></Point></Placemark><Placemark><name>STEVENSON UNIVERSITY</name><description>NCAA D3</description><ExtendedData><Data name="ipedsid"><value>164173</value></Data><Data name="name"><value>STEVENSON UNIVERSITY</value></Data><Data name="division"><value>NCAA D3</value></Data><Data name="within_hours_away"><value>2</value></Data></ExtendedData><Point><coordinates>-76.70126,39.4213</coordinates></Point></Placemark><Placemark><name>STOCKTON UNIVERSITY</name><description>NCAA D3</description><ExtendedData><Data name="ipedsid"><value>186876</value></Data><Data name="name"><value>STOCKTON UNIVERSITY</value></Data><Data name="division"><value>NCAA D3</value></Data><Data name="within_hours_away"><value>5</value></Data></ExtendedData><Point><coordinates>-74.5326,39.49195</coordinates></Point></Placemark><Placemark><name>SUSQUEHANNA UNIVERSITY</name><description>NCAA D3</description><ExtendedData><Data name="ipedsid"><value>216278</value></Data><Data name="name"><value>SUSQUEHANNA UNIVERSITY</value></Data><Data name="division"><value>NCAA D3</value></Data><Data name="within_hours_away"><value>4</value></Data></ExtendedData><Point><coordinates>-76.87536,40.79749</coordinates></Point></Placemark><Placemark><name>SWARTHMORE COLLEGE</name><description>NCAA D3</description><ExtendedData><Data name="ipedsid"><value>216287</value></Data><Data name="name"><value>SWARTHMORE COLLEGE</value></Data><Data name="division"><value>NCAA D3</value></Data><Data name="within_hours_away"><value>4</value></Data></ExtendedData><Point><coordinates>-75.3516,39.90595</coordinates></Point></Placemark><Placemark><name>THE COLLEGE OF NEW JERSEY</name><description>NCAA D3</description><ExtendedData><Data name="ipedsid"><value>187134</value></Data><Data name="name"><value>THE COLLEGE OF NEW JERSEY</value></Data><Data name="division"><value>NCAA D3</value></Data><Data name="within_hours_away"><value>4</value></Data></ExtendedData><Point><coordinates>-74.77737,40.26874</coordinates></Point></Placemark><Placemark><name>TOWSON UNIVERSITY</name><description>NCAA D1</description><ExtendedData><Data name="ipedsid"><value>164076</value></Data><Data name="name"><value>TOWSON UNIVERSITY</value></Data><Data name="division"><value>NCAA D1</value></Data><Data name="within_hours_away"><value>2</value></Data></ExtendedData><Point><coordinates>-76.61223,39.39298</coordinates></Point></Placemark><Placemark><name>UNION COUNTY COLLEGE</name><description>JC</description><ExtendedData><Data name="ipedsid"><value>187198</value></Data><Data name="name"><value>UNION COUNTY COLLEGE</value></Data><Data name="division"><value>JC</value></Data><Data name="within_hours_away"><value>5</value></Data></ExtendedData><Point><coordinates>-74.31979,40.6678</coordinates></Point></Placemark><Placemark><name>UNITED STATES NAVAL ACADEMY</name><description>NCAA D1</description><ExtendedData><Data name="ipedsid"><value>164155</value></Data><Data name="name"><value>UNITED STATES NAVAL ACADEMY</value></Data><Data name="division"><value>NCAA D1</value></Data><Data name="within_hours_away"><value>2</value></Data></ExtendedData><Point><coordinates>-76.48167,38.98055</coordinates></Point></Placemark><Placemark><name>UNIVERSITY OF DELAWARE</name><description>NCAA D1</description><ExtendedData><Data name="ipedsid"><value>130943</value></Data><Data name="name"><value>UNIVERSITY OF DELAWARE</value></Data><Data name="division"><value>NCAA D1</value></Data><Data name="within_hours_away"><value>3</value></Data></ExtendedData><Point><coordinates>-75.75283,39.67801</coordinates></Point></Placemark><Placemark><name>UNIVERSITY OF LYNCHBURG</name><description>NCAA D3</description><ExtendedData><Data name="ipedsid"><value>232609</value></Data><Data name="name"><value>UNIVERSITY OF LYNCHBURG</value></Data><Data name="division"><value>NCAA D3</value></Data><Data name="within_hours_away"><value>4</value></Data></ExtendedData><Point><coordinates>-79.18417,37.39765</coordinates></Point></Placemark><Placemark><name>UNIVERSITY OF MARY WASHINGTON</name><description>NCAA D3</description><ExtendedData><Data name="ipedsid"><value>232681</value></Data><Data name="name"><value>UNIVERSITY OF MARY WASHINGTON</value></Data><Data name="division"><value>NCAA D3</value></Data><Data name="within_hours_away"><value>2</value></Data></ExtendedData><Point><coordinates>-77.47389,38.30178</coordinates></Point></Placemark><Placemark><name>UNIVERSITY OF MARYLAND EASTERN SHORE</name><description>NCAA D1</description><ExtendedData><Data name="ipedsid"><value>163338</value></Data><Data name="name"><value>UNIVERSITY OF MARYLAND EASTERN SHORE</value></Data><Data name="division"><value>NCAA D1</value></Data><Data name="within_hours_away"><value>4</value></Data></ExtendedData><Point><coordinates>-75.68719,38.21123</coordinates></Point></Placemark><Placemark><name>UNIVERSITY OF RICHMOND</name><description>NCAA D1</description><ExtendedData><Data name="ipedsid"><value>233374</value></Data><Data name="name"><value>UNIVERSITY OF RICHMOND</value></Data><Data name="division"><value>NCAA D1</value></Data><Data name="within_hours_away"><value>3</value></Data></ExtendedData><Point><coordinates>-77.5388,37.57742</coordinates></Point></Placemark><Placemark><name>UNIVERSITY OF SCRANTON</name><description>NCAA D3</description><ExtendedData><Data name="ipedsid"><value>215929</value></Data><Data name="name"><value>UNIVERSITY OF SCRANTON</value></Data><Data name="division"><value>NCAA D3</value></Data><Data name="within_hours_away"><value>5</value></Data></ExtendedData><Point><coordinates>-75.65804,41.40712</coordinates></Point></Placemark><Placemark><name>UNIVERSITY OF THE SCIENCES</name><description>NCAA D2</description><ExtendedData><Data name="ipedsid"><value>215132</value></Data><Data name="name"><value>UNIVERSITY OF THE SCIENCES</value></Data><Data name="division"><value>NCAA D2</value></Data><Data name="within_hours_away"><value>4</value></Data></ExtendedData><Point><coordinates>-75.20829,39.94651</coordinates></Point></Placemark><Placemark><name>UNIVERSITY OF VALLEY FORGE</name><description>NCAA D3</description><ExtendedData><Data name="ipedsid"><value>216542</value></Data><Data name="name"><value>UNIVERSITY OF VALLEY FORGE</value></Data><Data name="division"><value>NCAA D3</value></Data><Data name="within_hours_away"><value>4</value></Data></ExtendedData><Point><coordinates>-75.54884,40.11908</coordinates></Point></Placemark><Placemark><name>URSINUS COLLEGE</name><description>NCAA D3</description><ExtendedData><Data name="ipedsid"><value>216524</value></Data><Data name="name"><value>URSINUS COLLEGE</value></Data><Data name="division"><value>NCAA D3</value></Data><Data name="within_hours_away"><value>4</value></Data></ExtendedData><Point><coordinates>-75.45807,40.19421</coordinates></Point></Placemark><Placemark><name>VILLANOVA UNIVERSITY</name><description>NCAA D1</description><ExtendedData><Data name="ipedsid"><value>216597</value></Data><Data name="name"><value>VILLANOVA UNIVERSITY</value></Data><Data name="division"><value>NCAA D1</value></Data><Data name="within_hours_away"><value>4</value></Data></ExtendedData><Point><coordinates>-75.34023,40.03575</coordinates></Point></Placemark><Placemark><name>VIRGINIA COMMONWEALTH UNIVERSITY</name><description>NCAA D1</description><ExtendedData><Data name="ipedsid"><value>234030</value></Data><Data name="name"><value>VIRGINIA COMMONWEALTH UNIVERSITY</value></Data><Data name="division"><value>NCAA D1</value></Data><Data name="within_hours_away"><value>3</value></Data></ExtendedData><Point><coordinates>-77.45362,37.54761</coordinates></Point></Placemark><Placemark><name>VIRGINIA STATE UNIVERSITY</name><description>NCAA D2</description><ExtendedData><Data name="ipedsid"><value>234155</value></Data><Data name="name"><value>VIRGINIA STATE UNIVERSITY</value></Data><Data name="division"><value>NCAA D2</value></Data><Data name="within_hours_away"><value>3</value></Data></ExtendedData><Point><coordinates>-77.4199,37.2365</coordinates></Point></Placemark><Placemark><name>VIRGINIA WESLEYAN UNIVERSITY</name><description>NCAA D3</description><ExtendedData><Data name="ipedsid"><value>234173</value></Data><Data name="name"><value>VIRGINIA WESLEYAN UNIVERSITY</value></Data><Data name="division"><value>NCAA D3</value></Data><Data name="within_hours_away"><value>4</value></Data></ExtendedData><Point><coordinates>-76.18608,36.86846</coordinates></Point></Placemark><Placemark><name>WAGNER COLLEGE</name><description>NCAA D1</description><ExtendedData><Data name="ipedsid"><value>197197</value></Data><Data name="name"><value>WAGNER COLLEGE</value></Data><Data name="division"><value>NCAA D1</value></Data><Data name="within_hours_away"><value>5</value></Data></ExtendedData><Point><coordinates>-74.09082,40.6145</coordinates></Point></Placemark><Placemark><name>WASHINGTON &amp; JEFFERSON COLLEGE</name><description>NCAA D3</description><ExtendedData><Data name="ipedsid"><value>216667</value></Data><Data name="name"><value>WASHINGTON &amp; JEFFERSON COLLEGE</value></Data><Data name="division"><value>NCAA D3</value></Data><Data name="within_hours_away"><value>5</value></Data></ExtendedData><Point><coordinates>-80.24073,40.17091</coordinates></Point></Placemark><Placemark><name>WASHINGTON COLLEGE</name><description>NCAA D3</description><ExtendedData><Data name="ipedsid"><value>164216</value></Data><Data name="name"><value>WASHINGTON COLLEGE</value></Data><Data name="division"><value>NCAA D3</value></Data><Data name="within_hours_away"><value>3</value></Data></ExtendedData><Point><coordinates>-76.06873,39.21733</coordinates></Point></Placemark><Placemark><name>WAYNESBURG UNIVERSITY</name><description>NCAA D3</description><ExtendedData><Data name="ipedsid"><value>216694</value></Data><Data name="name"><value>WAYNESBURG UNIVERSITY</value></Data><Data name="division"><value>NCAA D3</value></Data><Data name="within_hours_away"><value>5</value></Data></ExtendedData><Point><coordinates>-80.18745,39.89934</coordinates></Point></Placemark><Placemark><name>WEST CHESTER UNIVERSITY OF PENNSYLVANIA</name><description>NCAA D2</description><ExtendedData><Data name="ipedsid"><value>216764</value></Data><Data name="name"><value>WEST CHESTER UNIVERSITY OF PENNSYLVANIA</value></Data><Data name="division"><value>NCAA D2</value></Data><Data name="within_hours_away"><value>4</value></Data></ExtendedData><Point><coordinates>-75.59852,39.95191</coordinates></Point></Placemark><Placemark><name>WEST VIRGINIA UNIVERSITY</name><description>NCAA D1</description><ExtendedData><Data name="ipedsid"><value>238032</value></Data><Data name="name"><value>WEST VIRGINIA UNIVERSITY</value></Data><Data name="division"><value>NCAA D1</value></Data><Data name="within_hours_away"><value>4</value></Data></ExtendedData><Point><coordinates>-79.95393,39.63473</coordinates></Point></Placemark><Placemark><name>WEST VIRGINIA UNIVERSITY INSTITUTE OF TECHNOLOGY</name><description>NAIA</description><ExtendedData><Data name="ipedsid"><value>237950</value></Data><Data name="name"><value>WEST VIRGINIA UNIVERSITY INSTITUTE OF TECHNOLOGY</value></Data><Data name="division"><value>NAIA</value></Data><Data name="within_hours_away"><value>5</value></Data></ExtendedData><Point><coordinates>-81.18412,37.7759</coordinates></Point></Placemark><Placemark><name>WEST VIRGINIA WESLEYAN COLLEGE</name><description>NCAA D2</description><ExtendedData><Data name="ipedsid"><value>237969</value></Data><Data name="name"><value>WEST VIRGINIA WESLEYAN COLLEGE</value></Data><Data name="division"><value>NCAA D2</value></Data><Data name="within_hours_away"><value>5</value></Data></ExtendedData><Point><coordinates>-80.21707,38.99043</coordinates></Point></Placemark><Placemark><name>WESTMORELAND COUNTY COMMUNITY COLLEGE</name><description>JC</description><ExtendedData><Data name="ipedsid"><value>216825</value></Data><Data name="name"><value>WESTMORELAND COUNTY COMMUNITY COLLEGE</value></Data><Data name="division"><value>JC</value></Data><Data name="within_hours_away"><value>4</value></Data></ExtendedData><Point><coordinates>-79.56486,40.23432</coordinates></Point></Placemark><Placemark><name>WIDENER UNIVERSITY</name><description>NCAA D3</description><ExtendedData><Data name="ipedsid"><value>216852</value></Data><Data name="name"><value>WIDENER UNIVERSITY</value></Data><Data name="division"><value>NCAA D3</value></Data><Data name="within_hours_away"><value>4</value></Data></ExtendedData><Point><coordinates>-75.35518,39.86174</coordinates></Point></Placemark><Placemark><name>WILKES UNIVERSITY</name><description>NCAA D3</description><ExtendedData><Data name="ipedsid"><value>216931</value></Data><Data name="name"><value>WILKES UNIVERSITY</value></Data><Data name="division"><value>NCAA D3</value></Data><Data name="within_hours_away"><value>5</value></Data></ExtendedData><Point><coordinates>-75.88849,41.24492</coordinates></Point></Placemark><Placemark><name>WILLIAM PATERSON UNIVERSITY OF NEW JERSEY</name><description>NCAA D3</description><ExtendedData><Data name="ipedsid"><value>187444</value></Data><Data name="name"><value>WILLIAM PATERSON UNIVERSITY OF NEW JERSEY</value></Data><Data name="division"><value>NCAA D3</value></Data><Data name="within_hours_away"><value>5</value></Data></ExtendedData><Point><coordinates>-74.19875,40.94589</coordinates></Point></Placemark><Placemark><name>WILLIAMSON COLLEGE OF THE TRADES</name><description>JC</description><ExtendedData><Data name="ipedsid"><value>216940</value></Data><Data name="name"><value>WILLIAMSON COLLEGE OF THE TRADES</value></Data><Data name="division"><value>JC</value></Data><Data name="within_hours_away"><value>4</value></Data></ExtendedData><Point><coordinates>-75.42205,39.90802</coordinates></Point></Placemark><Placemark><name>WILMINGTON UNIVERSITY</name><description>NCAA D2</description><ExtendedData><Data name="ipedsid"><value>131113</value></Data><Data name="name"><value>WILMINGTON UNIVERSITY</value></Data><Data name="division"><value>NCAA D2</value></Data><Data name="within_hours_away"><value>3</value></Data></ExtendedData><Point><coordinates>-75.58634,39.68308</coordinates></Point></Placemark><Placemark><name>WILSON COLLEGE</name><description>NCAA D3</description><ExtendedData><Data name="ipedsid"><value>217013</value></Data><Data name="name"><value>WILSON COLLEGE</value></Data><Data name="division"><value>NCAA D3</value></Data><Data name="within_hours_away"><value>3</value></Data></ExtendedData><Point><coordinates>-77.64966,39.95015</coordinates></Point></Placemark><Placemark><name>YESHIVA UNIVERSITY</name><description>NCAA D3</description><ExtendedData><Data name="ipedsid"><value>197708</value></Data><Data name="name"><value>YESHIVA UNIVERSITY</value></Data><Data name="division"><value>NCAA D3</value></Data><Data name="within_hours_away"><value>5</value></Data></ExtendedData><Point><coordinates>-73.92851,40.85077</coordinates></Point></Placemark><Placemark><name>YORK COLLEGE OF PENNSYLVANIA</name><description>NCAA D3</description><ExtendedData><Data name="ipedsid"><value>217059</value></Data><Data name="name"><value>YORK COLLEGE OF PENNSYLVANIA</value></Data><Data name="division"><value>NCAA D3</value></Data><Data name="within_hours_away"><value>3</value></Data></ExtendedData><Point><coordinates>-76.72872,39.94759</coordinates></Point></Placemark></Document></kml>